[
  {
    "id": "1567503",
    "name": "Îlots Sud-Est",
    "ascii": "Ilots Sud-Est",
    "alt": "Ilots Sud-Est,Southeast Islets,Îlots Sud-Est",
    "lat": 10.25302,
    "lon": 103.23699,
    "fcode": "ISLS",
    "cc2": "",
    "country": "KH",
    "elev": null,
    "dem": -9999,
    "province": "Khaet Preah Sihanouk"
  },
  {
    "id": "1594931",
    "name": "Phnum Ta Phrom",
    "ascii": "Phnum Ta Phrom",
    "alt": "Phanom Ta Phrom,Phnum Ta Phrom",
    "lat": 14.36843,
    "lon": 104.41017,
    "fcode": "MT",
    "cc2": "",
    "country": "KH",
    "elev": 579,
    "dem": 575,
    "province": "Oddar Meanchey"
  },
  {
    "id": "1595399",
    "name": "Khok Yai",
    "ascii": "Khok Yai",
    "alt": "Khok Yai,Phu Khok Yai,โคกใหญ่",
    "lat": 14.31983,
    "lon": 104.98425,
    "fcode": "MT",
    "cc2": "",
    "country": "KH",
    "elev": 754,
    "dem": 757,
    "province": "Preah Vihear"
  },
  {
    "id": "1595422",
    "name": "Chong Phrik",
    "ascii": "Chong Phrik",
    "alt": "Chong Phrik,Chong Phrik Mate",
    "lat": 14.34966,
    "lon": 103.95605,
    "fcode": "PASS",
    "cc2": "",
    "country": "KH",
    "elev": null,
    "dem": 455,
    "province": "Oddar Meanchey"
  },
  {
    "id": "1595651",
    "name": "Chong O-bok",
    "ascii": "Chong O-bok",
    "alt": "",
    "lat": 14.30245,
    "lon": 103.12238,
    "fcode": "PASS",
    "cc2": "",
    "country": "KH",
    "elev": null,
    "dem": 300,
    "province": "Buri Ram Province"
  },
  {
    "id": "1596929",
    "name": "Chong Pradek",
    "ascii": "Chong Pradek",
    "alt": "Chong Pradek,Chong Pradok",
    "lat": 14.36638,
    "lon": 103.79436,
    "fcode": "PASS",
    "cc2": "",
    "country": "KH",
    "elev": null,
    "dem": 301,
    "province": "Oddar Meanchey"
  },
  {
    "id": "1605275",
    "name": "Phnum Trieng",
    "ascii": "Phnum Trieng",
    "alt": "Phnom Trieng,Phnom Trièng,Phnum Trieng,Phnŭm Triĕng,ភ្នំទ្រៀង",
    "lat": 12.39464,
    "lon": 102.77273,
    "fcode": "PK",
    "cc2": "",
    "country": "KH",
    "elev": null,
    "dem": 1105,
    "province": "Pursat"
  },
  {
    "id": "1606341",
    "name": "Chong Sek Yia",
    "ascii": "Chong Sek Yia",
    "alt": "Chong Pradok,Chong Sek Yia",
    "lat": 14.35131,
    "lon": 103.81709,
    "fcode": "PASS",
    "cc2": "",
    "country": "KH",
    "elev": null,
    "dem": 340,
    "province": "Oddar Meanchey"
  },
  {
    "id": "1606549",
    "name": "Chong Sa-ngam",
    "ascii": "Chong Sa-ngam",
    "alt": "Chong Sa-ngam,Col de Kon Phlau Sangam",
    "lat": 14.3423,
    "lon": 104.06484,
    "fcode": "PASS",
    "cc2": "",
    "country": "KH",
    "elev": null,
    "dem": 345,
    "province": "Oddar Meanchey"
  },
  {
    "id": "1606721",
    "name": "Chong Samet",
    "ascii": "Chong Samet",
    "alt": "Chok Semot,Chong Samet,Passe de Tchoup Smach",
    "lat": 14.35216,
    "lon": 103.29754,
    "fcode": "PASS",
    "cc2": "",
    "country": "KH",
    "elev": null,
    "dem": 254,
    "province": "Oddar Meanchey"
  },
  {
    "id": "1607496",
    "name": "Khao Phra Wihan",
    "ascii": "Khao Phra Wihan",
    "alt": "Kao Praviharn,Khao Phra Viharn,Khao Phra Wihan,Khao Phrom Wihan,Phnum Preah Vihear,Phnum Preăh Vihéar,khea phra wihar,เขาพระวิหาร",
    "lat": 14.39041,
    "lon": 104.68011,
    "fcode": "MT",
    "cc2": "",
    "country": "KH",
    "elev": 646,
    "dem": 615,
    "province": "Preah Vihear"
  },
  {
    "id": "1607808",
    "name": "Chuŏr Phnum Dângrêk",
    "ascii": "Chuor Phnum Dangrek",
    "alt": "Chaine des Dangrek,Chaine des Dangreok,Chaine des Phnom Dangrek,Chaîne des Dangrek,Chaîne des Dangreok,Chuor Phnum Dangrek,Chuŏr Phnum Dângrêk,Dang Rek Ridge,Dangrek Mountains,Dangrek Range,Danrek,Donrek Mountains,Monts Dangrek,Panom Dangrek,Phanom Dang Raek,Phanom Dong Rak,Phanom Dong Reek,Phnom Dang Rek,Pnom Dam-Rek,Pnom Dang- Rek,Pu Den Muawng,Pu-den-muong,Thiu Khao Phanom Dong Rak",
    "lat": 14.35837,
    "lon": 104.50845,
    "fcode": "MTS",
    "cc2": "",
    "country": "KH",
    "elev": null,
    "dem": 534,
    "province": "Preah Vihear"
  },
  {
    "id": "1609761",
    "name": "Phnum Svay",
    "ascii": "Phnum Svay",
    "alt": "Khao Kho Mamuang,Khao Khom Mawng,Khao Tau Mamuang,Phanom Kau Sawai,Phanom Kho Sawai,Phanom Kho Sway,Phanom Ko Sway,Phnom Svay,Phnum Svay,Phnŭm Svay,ភ្នំស្វាយ",
    "lat": 12.85502,
    "lon": 102.50761,
    "fcode": "MT",
    "cc2": "",
    "country": "KH",
    "elev": 510,
    "dem": 406,
    "province": "Pailin"
  },
  {
    "id": "1609999",
    "name": "Chong Khao Phrom Wihan",
    "ascii": "Chong Khao Phrom Wihan",
    "alt": "Chong Khao Phrom Wihan,Chong Prasat Preah Vihear",
    "lat": 14.39463,
    "lon": 104.68019,
    "fcode": "PASS",
    "cc2": "",
    "country": "KH",
    "elev": null,
    "dem": 596,
    "province": "Preah Vihear"
  },
  {
    "id": "1610891",
    "name": "Khao Phanom Dong Rak",
    "ascii": "Khao Phanom Dong Rak",
    "alt": "Dongrek,Khao Phanom Dong Rak,Phanom Dang Raek,Phanom Dong Rak,Phnum Dangrek,Phnum Dângrêk,Phu den Mn'ong,Phù den Mn'ong,kheaphnm dng rak,เขาพนมดงรัก",
    "lat": 14.23228,
    "lon": 105.13275,
    "fcode": "MT",
    "cc2": "",
    "country": "KH",
    "elev": 729,
    "dem": 734,
    "province": "Ubon Ratchathani Province"
  },
  {
    "id": "1610947",
    "name": "Chong Daraka",
    "ascii": "Chong Daraka",
    "alt": "Chong Daraka,Chong Taraka,Col de Kon Phlau Sangam",
    "lat": 14.34161,
    "lon": 104.05006,
    "fcode": "PASS",
    "cc2": "",
    "country": "KH",
    "elev": null,
    "dem": 344,
    "province": "Oddar Meanchey"
  },
  {
    "id": "1611048",
    "name": "Phanom Chat",
    "ascii": "Phanom Chat",
    "alt": "Phanom Chat,Phanom Chot,Phnom Chhat",
    "lat": 14.39343,
    "lon": 104.8725,
    "fcode": "MT",
    "cc2": "",
    "country": "KH",
    "elev": 419,
    "dem": 406,
    "province": "Preah Vihear"
  },
  {
    "id": "1611082",
    "name": "Phanom Chong Sung",
    "ascii": "Phanom Chong Sung",
    "alt": "Phanom Chong Sung,Phanom Phoeng Sung",
    "lat": 14.38583,
    "lon": 104.97715,
    "fcode": "MT",
    "cc2": "",
    "country": "KH",
    "elev": 655,
    "dem": 617,
    "province": "Preah Vihear"
  },
  {
    "id": "1821314",
    "name": "Phnum Yŭm Bra",
    "ascii": "Phnum Yum Bra",
    "alt": "Phnum Yum Bra,Phnum Yum Brah,Phnum Yŭm Bra,Phnŭm Yŭm Brah",
    "lat": 12.60818,
    "lon": 107.18717,
    "fcode": "HLL",
    "cc2": "",
    "country": "KH",
    "elev": null,
    "dem": 418,
    "province": "Mondulkiri"
  },
  {
    "id": "1821316",
    "name": "Phnum Yôk Té Văk",
    "ascii": "Phnum Yok Te Vak",
    "alt": "Phnum Yok Te Vak,Phnum Yok Te Wac,Phnum Yôk Té Văk,Phnŭm Yok Te Wac,Yok Te Wac",
    "lat": 12.65228,
    "lon": 107.55553,
    "fcode": "HLL",
    "cc2": "",
    "country": "KH",
    "elev": null,
    "dem": 390,
    "province": "Mondulkiri"
  },
  {
    "id": "1821317",
    "name": "Phnum Yoknot Changvang",
    "ascii": "Phnum Yoknot Changvang",
    "alt": "Phnum Yok Not Chang Veang,Phnum Yok Not Chung Uang,Phnum Yoknot Changvang,Phnum Yôk Nót Châng Véang,Phnŭm Yok Not Chung Uang,Yok Not Chung Uang,Yôk Not Chung Uang",
    "lat": 12.59003,
    "lon": 107.50574,
    "fcode": "HLL",
    "cc2": "",
    "country": "KH",
    "elev": null,
    "dem": 487,
    "province": "Mondulkiri"
  },
  {
    "id": "1821318",
    "name": "Phnum Yok Kantol",
    "ascii": "Phnum Yok Kantol",
    "alt": "Phnum Yok Kantol,Phnum Yok Nkol,Phnum Yôk Nkól,Yok N'Kol,Yôk N’Kol",
    "lat": 12.58677,
    "lon": 107.55426,
    "fcode": "HLL",
    "cc2": "",
    "country": "KH",
    "elev": null,
    "dem": 451,
    "province": "Mondulkiri"
  },
  {
    "id": "1821319",
    "name": "Phnum Yokanthu",
    "ascii": "Phnum Yokanthu",
    "alt": "Phnum Yok Ncho,Phnum Yokanthu,Phnum Yôk Ncho,Yok N'Cho,Yôk N’Cho",
    "lat": 12.61519,
    "lon": 107.53048,
    "fcode": "HLL",
    "cc2": "",
    "country": "KH",
    "elev": null,
    "dem": 403,
    "province": "Mondulkiri"
  },
  {
    "id": "1821320",
    "name": "Phnum Yok Laom",
    "ascii": "Phnum Yok Laom",
    "alt": "Phnum Yok Laom,Phnum Yok Lom,Phnum Yok Lum,Phnum Yôk Lum,Phnŭm Yok Lom,Yok Lom,Yôk Lom",
    "lat": 12.79704,
    "lon": 107.52739,
    "fcode": "HLL",
    "cc2": "",
    "country": "KH",
    "elev": null,
    "dem": 284,
    "province": "Mondulkiri"
  },
  {
    "id": "1821321",
    "name": "Phnum Yok Cha Tav",
    "ascii": "Phnum Yok Cha Tav",
    "alt": "Phnum Yok Cha Tao,Phnum Yok Cha Tav,Phnum Yŏk Cha Tav,Phnŭm Yok Cha Tao,Yok Cha Tao,Yôk Cha Tao",
    "lat": 12.62009,
    "lon": 107.54236,
    "fcode": "HLL",
    "cc2": "",
    "country": "KH",
    "elev": null,
    "dem": 445,
    "province": "Mondulkiri"
  },
  {
    "id": "1821322",
    "name": "Phnum Yok",
    "ascii": "Phnum Yok",
    "alt": "Phnom Yok,Phnum Yok,Phnum Yôk,Phnŭm Yôk",
    "lat": 12.19346,
    "lon": 104.19551,
    "fcode": "MT",
    "cc2": "",
    "country": "KH",
    "elev": null,
    "dem": 360,
    "province": "Kampong Chhnang"
  },
  {
    "id": "1821325",
    "name": "Chroŭy Yéay Sên",
    "ascii": "Chrouy Yeay Sen",
    "alt": "Chrouy Yeay Sen,Chroŭy Yéay Sên,Pointe Yai Sen,Pointe Yay Sen,Pointe Yeai Sen",
    "lat": 11.21558,
    "lon": 103.05374,
    "fcode": "PT",
    "cc2": "",
    "country": "KH",
    "elev": null,
    "dem": 8,
    "province": "Koh Kong"
  },
  {
    "id": "1821327",
    "name": "Phnum Yeay Mau",
    "ascii": "Phnum Yeay Mau",
    "alt": "Phnum Yeay Mau,Phnum Yéay Mau",
    "lat": 12.36745,
    "lon": 103.6452,
    "fcode": "MT",
    "cc2": "",
    "country": "KH",
    "elev": null,
    "dem": 311,
    "province": "Pursat"
  },
  {
    "id": "1821333",
    "name": "Kaôh Yâr",
    "ascii": "Kaoh Yar",
    "alt": "Kaoh Yar,Kaoh Yor,Kas Yor,Kaôh Yor,Kaôh Yâr,Koh Yor",
    "lat": 11.59318,
    "lon": 102.93469,
    "fcode": "ISL",
    "cc2": "",
    "country": "KH",
    "elev": null,
    "dem": 55,
    "province": "Koh Kong"
  },
  {
    "id": "1821335",
    "name": "Phnum Yang Po",
    "ascii": "Phnum Yang Po",
    "alt": "Phnum Yang Po,Phnum Yâng Po,Yok Yang Po,Yon Yang Po,Yôk Yăng Po",
    "lat": 12.96471,
    "lon": 107.4654,
    "fcode": "MT",
    "cc2": "",
    "country": "KH",
    "elev": null,
    "dem": 402,
    "province": "Mondulkiri"
  },
  {
    "id": "1821336",
    "name": "Phnum Yângkê",
    "ascii": "Phnum Yangke",
    "alt": "Phnum Yangke,Phnum Yângkê,Yok Yang Ke",
    "lat": 13.0116,
    "lon": 107.40718,
    "fcode": "HLL",
    "cc2": "",
    "country": "KH",
    "elev": null,
    "dem": 385,
    "province": "Mondulkiri"
  },
  {
    "id": "1821340",
    "name": "Kaôh Wai",
    "ascii": "Kaoh Wai",
    "alt": "Dao Vay,Kaoh Wai,Kaw Kwangnoi,Kaôh Wai,Koh Kwang Noi,Koh Poulo Wai,Koh Wai,Poulo Wai,Poulo Way,Pulo Wai,Wai Islands,Đảo Vây,កោះពលវៃ,កោះពូលូវៃ",
    "lat": 9.92584,
    "lon": 102.90561,
    "fcode": "ISLS",
    "cc2": "",
    "country": "KH",
    "elev": null,
    "dem": -9999,
    "province": "Khaet Preah Sihanouk"
  },
  {
    "id": "1821390",
    "name": "Phnŭm Voeune",
    "ascii": "Phnum Voeune",
    "alt": "Phnum Voeene,Phnum Voen,Phnum Voeune,Phnum Vœn,Phnŭm Voeene,Phnŭm Voeune,Phu Voeene,Phu Voene,ភ្នំ វ៉ន",
    "lat": 13.93785,
    "lon": 106.51629,
    "fcode": "MT",
    "cc2": "",
    "country": "KH",
    "elev": null,
    "dem": 393,
    "province": "Stung Treng"
  },
  {
    "id": "1821391",
    "name": "Phnum Voa Yeav",
    "ascii": "Phnum Voa Yeav",
    "alt": "Phnum Vear Yeao,Phnum Voa Yeav,Phnum Voall Yeav,Phnum Voăll Yéav,Phnŭm Véar Yéao",
    "lat": 13.66687,
    "lon": 104.06497,
    "fcode": "MT",
    "cc2": "",
    "country": "KH",
    "elev": null,
    "dem": 436,
    "province": "Siem Reap"
  },
  {
    "id": "1821392",
    "name": "Phnum Voa",
    "ascii": "Phnum Voa",
    "alt": "Phnom Vor,Phnum Voa,Phnum Voall,Phnum Vor,Phnum Voăll,Phnŭm Vor",
    "lat": 10.57105,
    "lon": 104.35378,
    "fcode": "HLL",
    "cc2": "",
    "country": "KH",
    "elev": null,
    "dem": 257,
    "province": "Kep"
  },
  {
    "id": "1821400",
    "name": "Phnum Veaeng",
    "ascii": "Phnum Veaeng",
    "alt": "Phnum Veaeng,Phnum Veng,Phnŭm Vêng,ភ្នំវែង",
    "lat": 12.87534,
    "lon": 102.77128,
    "fcode": "MT",
    "cc2": "",
    "country": "KH",
    "elev": null,
    "dem": 402,
    "province": "Battambang"
  },
  {
    "id": "1821401",
    "name": "Phnŭm Vêng",
    "ascii": "Phnum Veng",
    "alt": "",
    "lat": 13.49333,
    "lon": 102.46837,
    "fcode": "HLL",
    "cc2": "",
    "country": "KH",
    "elev": 449,
    "dem": 426,
    "province": "Bantey Meanchey"
  },
  {
    "id": "1821402",
    "name": "Phnŭm Vêng",
    "ascii": "Phnum Veng",
    "alt": "",
    "lat": 13.31111,
    "lon": 102.39386,
    "fcode": "HLL",
    "cc2": "",
    "country": "KH",
    "elev": 370,
    "dem": 346,
    "province": "Battambang"
  },
  {
    "id": "1821403",
    "name": "Phnum Veaeng",
    "ascii": "Phnum Veaeng",
    "alt": "Phnom Veng,Phnum Veaeng,Phnum Veng,Phnum Vêng",
    "lat": 12.29991,
    "lon": 103.85103,
    "fcode": "HLL",
    "cc2": "",
    "country": "KH",
    "elev": null,
    "dem": 183,
    "province": "Pursat"
  },
  {
    "id": "1821404",
    "name": "Phnum Veaeng",
    "ascii": "Phnum Veaeng",
    "alt": "Phnum Veaeng,Phnum Veng,Phnum Vêng,Phnŭm Vêng,ភ្នំវែង",
    "lat": 11.73297,
    "lon": 104.30991,
    "fcode": "HLL",
    "cc2": "",
    "country": "KH",
    "elev": null,
    "dem": 302,
    "province": "Kampong Speu"
  },
  {
    "id": "1821405",
    "name": "Kaôh Vêng",
    "ascii": "Kaoh Veng",
    "alt": "Kaoh Veng,Kas Veng,Kaôh Vêng",
    "lat": 12.93782,
    "lon": 106.01529,
    "fcode": "ISL",
    "cc2": "",
    "country": "KH",
    "elev": null,
    "dem": 35,
    "province": "Kratie"
  },
  {
    "id": "1821406",
    "name": "Kaôh Vêng",
    "ascii": "Kaoh Veng",
    "alt": "Kaoh Veng,Kas Veng,Kaôh Vêng",
    "lat": 12.91137,
    "lon": 105.99094,
    "fcode": "ISL",
    "cc2": "",
    "country": "KH",
    "elev": null,
    "dem": 36,
    "province": "Kratie"
  },
  {
    "id": "1821411",
    "name": "Îlot Veer",
    "ascii": "Ilot Veer",
    "alt": "Hon Weer,Ilot Veer,Ilot Vert,Îlot Veer",
    "lat": 10.23562,
    "lon": 102.88178,
    "fcode": "ISL",
    "cc2": "",
    "country": "KH",
    "elev": null,
    "dem": 11,
    "province": "Khaet Preah Sihanouk"
  },
  {
    "id": "1821414",
    "name": "Phnum Veay",
    "ascii": "Phnum Veay",
    "alt": "Phnom Wiey,Phnum Veay,Phnum Véay,Phnum Wiey,Phnŭm Wiey,ភ្នំវាយ",
    "lat": 11.6352,
    "lon": 104.37145,
    "fcode": "HLL",
    "cc2": "",
    "country": "KH",
    "elev": null,
    "dem": 161,
    "province": "Kampong Speu"
  },
  {
    "id": "1821415",
    "name": "Phnŭm Véar",
    "ascii": "Phnum Vear",
    "alt": "",
    "lat": 13.26889,
    "lon": 102.41583,
    "fcode": "HLL",
    "cc2": "",
    "country": "KH",
    "elev": 250,
    "dem": 214,
    "province": "Battambang"
  },
  {
    "id": "1821417",
    "name": "Phnum Neang",
    "ascii": "Phnum Neang",
    "alt": "Phnum Neang,Phnum Veang,Phnŭm Véang,ភ្នំវាង",
    "lat": 12.98985,
    "lon": 102.64732,
    "fcode": "HLL",
    "cc2": "",
    "country": "KH",
    "elev": 301,
    "dem": 234,
    "province": "Pailin"
  },
  {
    "id": "1821423",
    "name": "Phnum Veal Thma Kambot",
    "ascii": "Phnum Veal Thma Kambot",
    "alt": "Phnom Veal Thmar Kro Baut,Phnum Veal Thma Kambot,Phnum Véal Thmâ Kâmbŏt",
    "lat": 11.85864,
    "lon": 103.19708,
    "fcode": "MT",
    "cc2": "",
    "country": "KH",
    "elev": null,
    "dem": 585,
    "province": "Koh Kong"
  },
  {
    "id": "1821424",
    "name": "Phnum Véal Thlôk",
    "ascii": "Phnum Veal Thlok",
    "alt": "",
    "lat": 10.81064,
    "lon": 104.61418,
    "fcode": "MT",
    "cc2": "",
    "country": "KH",
    "elev": null,
    "dem": 397,
    "province": "Kampot"
  },
  {
    "id": "1821435",
    "name": "Phnum Veal Lveang",
    "ascii": "Phnum Veal Lveang",
    "alt": "Phnum Veal Lovieng,Phnum Veal Lveang,Phnum Véal Lvéang,Phnŭm Véal Lovieng",
    "lat": 10.60332,
    "lon": 104.80739,
    "fcode": "MT",
    "cc2": "",
    "country": "KH",
    "elev": null,
    "dem": 305,
    "province": "Takeo"
  },
  {
    "id": "1821438",
    "name": "Phnum Veal Chhuk",
    "ascii": "Phnum Veal Chhuk",
    "alt": "Phnum Veal Chhuk,Phnum Véal Chhuk,Vail Chluk",
    "lat": 10.78369,
    "lon": 104.04638,
    "fcode": "MT",
    "cc2": "",
    "country": "KH",
    "elev": null,
    "dem": 807,
    "province": "Kampot"
  },
  {
    "id": "1821439",
    "name": "Phnum Veal Chab",
    "ascii": "Phnum Veal Chab",
    "alt": "Phnom Veal Chap,Phnom Veay Chap,Phnom Veay Chop,Phnum Veal Chab,Phnum Veal Chap,Phnum Véal Chab,Phnum Véal Chap,Phu Veal Chop",
    "lat": 12.77612,
    "lon": 102.96255,
    "fcode": "MT",
    "cc2": "",
    "country": "KH",
    "elev": null,
    "dem": 416,
    "province": "Battambang"
  },
  {
    "id": "1821442",
    "name": "Phnum Veay Lob",
    "ascii": "Phnum Veay Lob",
    "alt": "Phnum Fai Nop,Phnum Vai Lup,Phnum Vay Lob,Phnum Vay Lób,Phnum Veay Lob,Phnŭm Vai Lŭp",
    "lat": 10.60077,
    "lon": 103.71782,
    "fcode": "HLL",
    "cc2": "",
    "country": "KH",
    "elev": null,
    "dem": 204,
    "province": "Khaet Preah Sihanouk"
  },
  {
    "id": "1821450",
    "name": "Phnum Tvear",
    "ascii": "Phnum Tvear",
    "alt": "Phnom Thvea,Phnum Tvea,Phnum Tvear,Phnum Tvéar,Phnŭm Tvéa",
    "lat": 10.73849,
    "lon": 104.31255,
    "fcode": "HLL",
    "cc2": "",
    "country": "KH",
    "elev": null,
    "dem": 221,
    "province": "Kampot"
  },
  {
    "id": "1821452",
    "name": "Phnum Tuo",
    "ascii": "Phnum Tuo",
    "alt": "Phnum Tuo,Phnum Tuor,Phnŭm Tuŏr,ភ្នំទួរ",
    "lat": 12.39663,
    "lon": 102.84589,
    "fcode": "MT",
    "cc2": "",
    "country": "KH",
    "elev": 915,
    "dem": 920,
    "province": "Pursat"
  },
  {
    "id": "1821455",
    "name": "Phnum Tuol Thum",
    "ascii": "Phnum Tuol Thum",
    "alt": "Phnom Tuol Thom,Phnum Tuol Thum,Phnum Tuŏl Thum",
    "lat": 10.72729,
    "lon": 104.29595,
    "fcode": "HLL",
    "cc2": "",
    "country": "KH",
    "elev": null,
    "dem": 140,
    "province": "Kampot"
  },
  {
    "id": "1821462",
    "name": "Phnum Tuol",
    "ascii": "Phnum Tuol",
    "alt": "Phnum Tuol,Phnŭm Tuŏl",
    "lat": 12.4125,
    "lon": 103.05299,
    "fcode": "MT",
    "cc2": "",
    "country": "KH",
    "elev": null,
    "dem": 892,
    "province": "Pursat"
  },
  {
    "id": "1821467",
    "name": "Phnum Tumpoar",
    "ascii": "Phnum Tumpoar",
    "alt": "Phnom Tumpor,Phnum Tumpoar,Phnum Tumpor,Phnum Tumpôr,Phnŭm Tumpôr,Pnom Tumpor,Tumpor,ភ្នំទំពរ៍",
    "lat": 12.3664,
    "lon": 103.06549,
    "fcode": "MT",
    "cc2": "",
    "country": "KH",
    "elev": 1551,
    "dem": 1326,
    "province": "Pursat"
  },
  {
    "id": "1821468",
    "name": "Phnum Tumpong",
    "ascii": "Phnum Tumpong",
    "alt": "Phnom Tumpaung,Phnum Tumpaung,Phnum Tumpong,Phnum Tŭmpong,Phnŭm Tumpaung,ភ្នំទំពូង",
    "lat": 13.52244,
    "lon": 104.32415,
    "fcode": "HLL",
    "cc2": "",
    "country": "KH",
    "elev": null,
    "dem": 132,
    "province": "Siem Reap"
  },
  {
    "id": "1821469",
    "name": "Phnum Tumleay",
    "ascii": "Phnum Tumleay",
    "alt": "Phnom Tom Loy,Phnum Tumleay,Phnum Tumloy,Phnum Tumlôy",
    "lat": 12.32618,
    "lon": 103.84497,
    "fcode": "HLL",
    "cc2": "",
    "country": "KH",
    "elev": null,
    "dem": 182,
    "province": "Pursat"
  },
  {
    "id": "1821471",
    "name": "Phnŭm Tumbăt",
    "ascii": "Phnum Tumbat",
    "alt": "Phnom Tumbol,Phnum Tumbat,Phnum Tumbot,Phnum Tumyut,Phnŭm Tumbăt,Phnŭm Tumbŏt,ភ្នំទំបត់",
    "lat": 12.40846,
    "lon": 102.96276,
    "fcode": "MT",
    "cc2": "",
    "country": "KH",
    "elev": 1165,
    "dem": 1139,
    "province": "Pursat"
  },
  {
    "id": "1821473",
    "name": "Phnum Tukuor",
    "ascii": "Phnum Tukuor",
    "alt": "Phnum Tou Gourr,Phnum Tukuor,Phnum Tukuŏr,Phnŭm Tou Gourr,Yuk Tou Gourr",
    "lat": 12.40223,
    "lon": 107.28033,
    "fcode": "MT",
    "cc2": "",
    "country": "KH",
    "elev": null,
    "dem": 898,
    "province": "Mondulkiri"
  },
  {
    "id": "1821478",
    "name": "Phnum Tuk Chray",
    "ascii": "Phnum Tuk Chray",
    "alt": "Phnom Tuk Chrey,Phnum Tuk Chray,Phnum Tŭk Chray,Phnŭm Tŭk Chray,ភ្នំទុកច្រាយ",
    "lat": 12.38218,
    "lon": 104.31023,
    "fcode": "MT",
    "cc2": "",
    "country": "KH",
    "elev": null,
    "dem": 358,
    "province": "Pursat"
  },
  {
    "id": "1821479",
    "name": "Phnum Tuk Chh’oeng",
    "ascii": "Phnum Tuk Chh'oeng",
    "alt": "Phnum Tuk Chh'oeng,Phnum Tuk Chhaoeng,Phnum Tuk Chh’oeng,Phnum Tŭk Chh’œ̆ng,Phnŭm Tŭk Chhâœ̆ng",
    "lat": 12.41031,
    "lon": 103.86336,
    "fcode": "HLL",
    "cc2": "",
    "country": "KH",
    "elev": null,
    "dem": 347,
    "province": "Pursat"
  },
  {
    "id": "1821483",
    "name": "Phnum Trônóp Rôkar",
    "ascii": "Phnum Tronop Rokar",
    "alt": "Phnom Tuk Chau,Phnum Tronop Rokar,Phnum Trônóp Rôkar",
    "lat": 11.36152,
    "lon": 104.5983,
    "fcode": "HLL",
    "cc2": "",
    "country": "KH",
    "elev": null,
    "dem": 198,
    "province": "Kampong Speu"
  },
  {
    "id": "1821485",
    "name": "Phnŭm Trŭng Téa",
    "ascii": "Phnum Trung Tea",
    "alt": "Phnom Prateat,Phnom Prâtéat,Phnum Trong Tea,Phnum Trung Tea,Phnum Tróng Téa,Phnŭm Trŭng Téa,ភ្នំ ទ្រង់ទា",
    "lat": 13.0299,
    "lon": 103.08812,
    "fcode": "HLL",
    "cc2": "",
    "country": "KH",
    "elev": null,
    "dem": 19,
    "province": "Battambang"
  },
  {
    "id": "1821486",
    "name": "Phnŭm Trŭng Moân",
    "ascii": "Phnum Trung Moan",
    "alt": "Phnom Troung Mean,Phnum Trong Mean,Phnum Trung Moan,Phnum Tróng Méan,Phnŭm Trŭng Moân,ភ្នំ ទ្រង់មាន់",
    "lat": 13.02709,
    "lon": 103.08232,
    "fcode": "HLL",
    "cc2": "",
    "country": "KH",
    "elev": null,
    "dem": 36,
    "province": "Battambang"
  },
  {
    "id": "1821488",
    "name": "Kaôh Tróng",
    "ascii": "Kaoh Trong",
    "alt": "Kaoh Trong,Kaoh Trung,Kas Trong,Kaôh Tróng,Kaôh Trŭng",
    "lat": 12.49471,
    "lon": 105.99689,
    "fcode": "ISL",
    "cc2": "",
    "country": "KH",
    "elev": null,
    "dem": 20,
    "province": "Kratie"
  },
  {
    "id": "1821489",
    "name": "Phnum Trolouch",
    "ascii": "Phnum Trolouch",
    "alt": "Phnom Tralok,Phnum Trolouch,Phnum Trolouk,Phnum Trôloŭk,Phnŭm Trôlouk,ភ្នំ ទ្រលោក",
    "lat": 13.57622,
    "lon": 103.33246,
    "fcode": "HLL",
    "cc2": "",
    "country": "KH",
    "elev": null,
    "dem": 66,
    "province": "Bantey Meanchey"
  },
  {
    "id": "1821491",
    "name": "Phnum Truol",
    "ascii": "Phnum Truol",
    "alt": "Phnom Traul,Phnum Traul,Phnum Trol,Phnum Truol,ភ្នំត្រូល",
    "lat": 12.96894,
    "lon": 102.76659,
    "fcode": "HLL",
    "cc2": "",
    "country": "KH",
    "elev": null,
    "dem": 227,
    "province": "Battambang"
  },
  {
    "id": "1821493",
    "name": "Phnum Triel",
    "ascii": "Phnum Triel",
    "alt": "Phnum Triel,Phnum Triĕl",
    "lat": 12.34932,
    "lon": 103.94384,
    "fcode": "HLL",
    "cc2": "",
    "country": "KH",
    "elev": null,
    "dem": 73,
    "province": "Pursat"
  },
  {
    "id": "1821496",
    "name": "Phnum Traeng",
    "ascii": "Phnum Traeng",
    "alt": "Phnum Traeng,Phnum Treng,Phnum Trêng,ភ្នំ ត្រែង",
    "lat": 10.98085,
    "lon": 104.10254,
    "fcode": "MT",
    "cc2": "",
    "country": "KH",
    "elev": null,
    "dem": 413,
    "province": "Kampot"
  },
  {
    "id": "1821509",
    "name": "Phnum Trayong",
    "ascii": "Phnum Trayong",
    "alt": "Phnom Trayaung,Phnom Trayong,Phnum Trayong,Phnum Trâyông,Phnôm Trâyaûng,Phnŭm Trayong,ភ្នំត្រយង",
    "lat": 12.5297,
    "lon": 103.27877,
    "fcode": "HLL",
    "cc2": "",
    "country": "KH",
    "elev": null,
    "dem": 276,
    "province": "Pursat"
  },
  {
    "id": "1821510",
    "name": "Phnum Trayang",
    "ascii": "Phnum Trayang",
    "alt": "Phnom Trayang,Phnom Trayong,Phnum Trayang,Phnum Trâyâng,Phnŭm Trâyâng,ភ្នំ ត្រយ៉ង",
    "lat": 13.58514,
    "lon": 103.34749,
    "fcode": "HLL",
    "cc2": "",
    "country": "KH",
    "elev": null,
    "dem": 117,
    "province": "Bantey Meanchey"
  },
  {
    "id": "1821511",
    "name": "Phnum Trayang",
    "ascii": "Phnum Trayang",
    "alt": "Phnum Trayang,Phnum Trâyáng",
    "lat": 13.56246,
    "lon": 104.62346,
    "fcode": "MT",
    "cc2": "",
    "country": "KH",
    "elev": null,
    "dem": 411,
    "province": "Preah Vihear"
  },
  {
    "id": "1821512",
    "name": "Phnum Trayang",
    "ascii": "Phnum Trayang",
    "alt": "Phnum Trayang,Phnum Trâyâng,Phnŭm Trâyâng,ភ្នំ ត្រយង",
    "lat": 12.84947,
    "lon": 106.3487,
    "fcode": "HLL",
    "cc2": "",
    "country": "KH",
    "elev": null,
    "dem": 232,
    "province": "Kratie"
  },
  {
    "id": "1821516",
    "name": "Phnum Trav",
    "ascii": "Phnum Trav",
    "alt": "Phnom Trao,Phnum Trav",
    "lat": 12.22356,
    "lon": 106.13023,
    "fcode": "HLL",
    "cc2": "",
    "country": "KH",
    "elev": null,
    "dem": 106,
    "province": "Kratie"
  },
  {
    "id": "1821522",
    "name": "Phnum Trasiet",
    "ascii": "Phnum Trasiet",
    "alt": "Phnum Trasiet,Phnum Trâsiĕt",
    "lat": 10.68498,
    "lon": 104.36725,
    "fcode": "HLL",
    "cc2": "",
    "country": "KH",
    "elev": null,
    "dem": 240,
    "province": "Kampot"
  },
  {
    "id": "1821526",
    "name": "Phnum Trâpeăng Thum",
    "ascii": "Phnum Trapeang Thum",
    "alt": "Phnum Trapeang Thom,Phnum Trapeang Thum,Phnum Trâpeăng Thum,Phnŭm Trapeăng Thom,Phu Trapeang Thom",
    "lat": 13.76736,
    "lon": 105.8873,
    "fcode": "HLL",
    "cc2": "",
    "country": "KH",
    "elev": null,
    "dem": 283,
    "province": "Stung Treng"
  },
  {
    "id": "1821530",
    "name": "Phnum Trapeang Rung",
    "ascii": "Phnum Trapeang Rung",
    "alt": "Phnum Trapeang Rung,Phnum Trâpeăng Rung,ភ្នំត្រពាំងរូង",
    "lat": 11.40607,
    "lon": 103.30971,
    "fcode": "HLL",
    "cc2": "",
    "country": "KH",
    "elev": null,
    "dem": 262,
    "province": "Koh Kong"
  },
  {
    "id": "1821537",
    "name": "Phnum Trapeang Pring",
    "ascii": "Phnum Trapeang Pring",
    "alt": "Phnum Trapeang Pring,Phnum Trâpeăng Pring,Phnŭm Trâpeăng Pring",
    "lat": 12.28163,
    "lon": 104.09516,
    "fcode": "MT",
    "cc2": "",
    "country": "KH",
    "elev": null,
    "dem": 299,
    "province": "Pursat"
  },
  {
    "id": "1821540",
    "name": "Phnum Trapeang Khyang",
    "ascii": "Phnum Trapeang Khyang",
    "alt": "Phnum Trapeang Khyang,Phnum Trâpeăng Khyâng,Phnŭm Trâpeăng Khyâng,ភ្នំ ត្រពាំងខ្យង",
    "lat": 11.0607,
    "lon": 104.13456,
    "fcode": "MT",
    "cc2": "",
    "country": "KH",
    "elev": null,
    "dem": 476,
    "province": "Kampot"
  },
  {
    "id": "1821547",
    "name": "Phnum Trang",
    "ascii": "Phnum Trang",
    "alt": "Phnum Trang,Phnŭm Tráng,Phnŭm Trâng,ភ្នំត្រង",
    "lat": 12.3575,
    "lon": 102.86878,
    "fcode": "HLL",
    "cc2": "",
    "country": "KH",
    "elev": 669,
    "dem": 661,
    "province": "Pursat"
  },
  {
    "id": "1821564",
    "name": "Phnum Trach",
    "ascii": "Phnum Trach",
    "alt": "",
    "lat": 12.59477,
    "lon": 105.46095,
    "fcode": "HLL",
    "cc2": "",
    "country": "KH",
    "elev": null,
    "dem": 156,
    "province": "Kampong Thom"
  },
  {
    "id": "1821565",
    "name": "Phnum Trach",
    "ascii": "Phnum Trach",
    "alt": "",
    "lat": 10.66127,
    "lon": 104.3053,
    "fcode": "HLL",
    "cc2": "",
    "country": "KH",
    "elev": null,
    "dem": 210,
    "province": "Kampot"
  },
  {
    "id": "1821571",
    "name": "Phnum Trab",
    "ascii": "Phnum Trab",
    "alt": "Phnom Trap,Phnum Trab,Phnum Trap,Phnum Tráb,Phnŭm Trâp",
    "lat": 12.44293,
    "lon": 103.96341,
    "fcode": "HLL",
    "cc2": "",
    "country": "KH",
    "elev": null,
    "dem": 238,
    "province": "Pursat"
  },
  {
    "id": "1821574",
    "name": "Kaôh Toŭm",
    "ascii": "Kaoh Toum",
    "alt": "Dan Toum,Kaoh Toum,Kaôh Toŭm",
    "lat": 13.89196,
    "lon": 105.99667,
    "fcode": "ISL",
    "cc2": "",
    "country": "KH",
    "elev": null,
    "dem": 63,
    "province": "Stung Treng"
  },
  {
    "id": "1821575",
    "name": "Phnum Totung",
    "ascii": "Phnum Totung",
    "alt": "Phnom Totong,Phnum Totung,Phnum Tôtŭng",
    "lat": 10.69097,
    "lon": 104.52178,
    "fcode": "MT",
    "cc2": "",
    "country": "KH",
    "elev": null,
    "dem": 170,
    "province": "Kampot"
  },
  {
    "id": "1821579",
    "name": "Phnum Totueng Thngai",
    "ascii": "Phnum Totueng Thngai",
    "alt": "Phnum Totoeng Thnga,Phnum Totoeng Thngai,Phnum Totueng Thngai,Phnum Tôtœ̆ng Thngai,Phnŭm Tôtœ̆ng Thnga",
    "lat": 12.32673,
    "lon": 103.5233,
    "fcode": "HLL",
    "cc2": "",
    "country": "KH",
    "elev": null,
    "dem": 203,
    "province": "Pursat"
  },
  {
    "id": "1821583",
    "name": "Phnum Totueng",
    "ascii": "Phnum Totueng",
    "alt": "Phnom Totung,Phnum Totoeng,Phnum Totueng,Phnum Tôtœ̆ng",
    "lat": 11.95516,
    "lon": 106.00882,
    "fcode": "HLL",
    "cc2": "",
    "country": "KH",
    "elev": null,
    "dem": 98,
    "province": "Tbong Khmum"
  },
  {
    "id": "1821585",
    "name": "Phnum Totiek",
    "ascii": "Phnum Totiek",
    "alt": "Phnum Totiek,Phnum Tôtiĕk,Phnŭm Tôtiĕk",
    "lat": 12.01201,
    "lon": 104.31287,
    "fcode": "MT",
    "cc2": "",
    "country": "KH",
    "elev": null,
    "dem": 692,
    "province": "Kampong Chhnang"
  },
  {
    "id": "1821587",
    "name": "Kaoh Tonsay",
    "ascii": "Kaoh Tonsay",
    "alt": "Hon Antay,Hon Pic,Hon Tai,Hòn Pic,Ile du Bic,Ile du Pic,Kaoh Tonsay,Kaoh Tunsay,Kas Antay,Kaôh Tônsay,Kaôh Tŭnsay,Koh Antay,Koh Rumsay,Koh Tonsay,Linked Island,Peak Island,Rabbit Island,Île du Bic,Île du Pic,កោះទនសាយ,កោះទន្សាយ",
    "lat": 10.43603,
    "lon": 104.32637,
    "fcode": "ISL",
    "cc2": "",
    "country": "KH",
    "elev": null,
    "dem": 120,
    "province": "Kep"
  },
  {
    "id": "1821588",
    "name": "Phnum Tonsaong",
    "ascii": "Phnum Tonsaong",
    "alt": "Phnum Tonsaong,Phnum Tunsaong,Phnum Tônsaông,Phnŭm Tŭnsâong",
    "lat": 11.24094,
    "lon": 103.95802,
    "fcode": "MT",
    "cc2": "",
    "country": "KH",
    "elev": null,
    "dem": 744,
    "province": "Khaet Preah Sihanouk"
  },
  {
    "id": "1821594",
    "name": "Kaôh Tônléa",
    "ascii": "Kaoh Tonlea",
    "alt": "",
    "lat": 12.48018,
    "lon": 104.5362,
    "fcode": "ISLX",
    "cc2": "",
    "country": "KH",
    "elev": null,
    "dem": 8,
    "province": "Kampong Chhnang"
  },
  {
    "id": "1821595",
    "name": "Phnŭm Tong Yu",
    "ascii": "Phnum Tong Yu",
    "alt": "Phnum Tong Yu,Phnum Tông Yu,Phnŭm Tong Yu,Yok Tong Yu,Yok Tông Yu,ភ្នំ ទងយូ",
    "lat": 12.67083,
    "lon": 106.45787,
    "fcode": "HLL",
    "cc2": "",
    "country": "KH",
    "elev": null,
    "dem": 110,
    "province": "Mondulkiri"
  },
  {
    "id": "1821597",
    "name": "Phnum Tong Prong",
    "ascii": "Phnum Tong Prong",
    "alt": "Phnom Tong Prong,Phnum Tong Prong,Phnum Tông Prông,Phnŭm Tông Prŏng,ភ្នំ ទងប្រុង",
    "lat": 12.43218,
    "lon": 105.85469,
    "fcode": "HLL",
    "cc2": "",
    "country": "KH",
    "elev": null,
    "dem": 96,
    "province": "Kratie"
  },
  {
    "id": "1821599",
    "name": "Phnum Tong",
    "ascii": "Phnum Tong",
    "alt": "Phnum Tong,Phnŭm Tông",
    "lat": 12.63325,
    "lon": 102.77034,
    "fcode": "HLL",
    "cc2": "",
    "country": "KH",
    "elev": null,
    "dem": 369,
    "province": "Battambang"
  },
  {
    "id": "1821601",
    "name": "Phnum Toukulik",
    "ascii": "Phnum Toukulik",
    "alt": "Phnom Tou Kouleuc,Phnom Toukoutouc,Phnum To Kulik,Phnum To Kulĭk,Phnum Toukulik",
    "lat": 13.77246,
    "lon": 105.68991,
    "fcode": "HLL",
    "cc2": "",
    "country": "KH",
    "elev": null,
    "dem": 191,
    "province": "Stung Treng"
  },
  {
    "id": "1821611",
    "name": "Phnum Tuek Srah",
    "ascii": "Phnum Tuek Srah",
    "alt": "Phnom Tuk Sras,Phnum Toek Srah,Phnum Tuek Srah,Phnum Tœ̆k Srăh,Phnŭm Tœ̆k Srăh,ភ្នំទឹកស្រះ",
    "lat": 12.3843,
    "lon": 104.18723,
    "fcode": "PK",
    "cc2": "",
    "country": "KH",
    "elev": null,
    "dem": 383,
    "province": "Pursat"
  },
  {
    "id": "1821613",
    "name": "Chuor Phnum Teuksap",
    "ascii": "Chuor Phnum Teuksap",
    "alt": "Chaine de Tuksap,Chaîne de Tuksap,Chuor Phnum Teuksap,Chuor Phnum Toek Sab,Chuor Phnum Toek Sap,Chuŏr Phnum Tœ̆k Sab,Chuŏr Phnŭm Tœ̆k Sap",
    "lat": 10.67853,
    "lon": 103.73117,
    "fcode": "HLLS",
    "cc2": "",
    "country": "KH",
    "elev": null,
    "dem": 209,
    "province": "Khaet Preah Sihanouk"
  },
  {
    "id": "1821617",
    "name": "Phnum Tuek Pril",
    "ascii": "Phnum Tuek Pril",
    "alt": "Phnom Tuk Pril,Phnum Toek Pril,Phnum Tuek Pril,Phnŭm Tœ̆k Prĭl",
    "lat": 12.50544,
    "lon": 102.96552,
    "fcode": "MT",
    "cc2": "",
    "country": "KH",
    "elev": null,
    "dem": 1142,
    "province": "Battambang"
  },
  {
    "id": "1821620",
    "name": "Phnum Tuek Phos",
    "ascii": "Phnum Tuek Phos",
    "alt": "Phnom Tak Pus,Phnum Toek Phos,Phnum Tuek Phos,Phnum Tuk Pus,Phnum Tœ̆k Phŏs,Phnŭm Tuk Pus,ភ្នំទឹកផុស",
    "lat": 12.51613,
    "lon": 103.46401,
    "fcode": "HLL",
    "cc2": "",
    "country": "KH",
    "elev": null,
    "dem": 210,
    "province": "Pursat"
  },
  {
    "id": "1821632",
    "name": "Phnum Tuek",
    "ascii": "Phnum Tuek",
    "alt": "Phnum Toek,Phnum Tuek,Phnum Tœ̆k,Phnŭm Tœ̆k",
    "lat": 12.39731,
    "lon": 104.11309,
    "fcode": "MT",
    "cc2": "",
    "country": "KH",
    "elev": null,
    "dem": 397,
    "province": "Pursat"
  },
  {
    "id": "1821634",
    "name": "Phnum Touch Veaeng",
    "ascii": "Phnum Touch Veaeng",
    "alt": "Phnum Toch Veng,Phnum Toch Vêng,Phnum Touch Veaeng,Phnŭm Toch Vêng,ភ្នំតូចវែង",
    "lat": 12.24322,
    "lon": 104.02928,
    "fcode": "HLL",
    "cc2": "",
    "country": "KH",
    "elev": null,
    "dem": 273,
    "province": "Pursat"
  },
  {
    "id": "1821643",
    "name": "Phnŭm Toch",
    "ascii": "Phnum Toch",
    "alt": "Phnom Tauch,Phnom Taûch,Phnum Toch,Phnŭm Toch",
    "lat": 13.76709,
    "lon": 102.89609,
    "fcode": "HLL",
    "cc2": "",
    "country": "KH",
    "elev": 111,
    "dem": 94,
    "province": "Bantey Meanchey"
  },
  {
    "id": "1821644",
    "name": "Phnum Touch",
    "ascii": "Phnum Touch",
    "alt": "Phnom Tauch,Phnom Tock,Phnum Toch,Phnum Touch,ភ្នំតូច",
    "lat": 13.41253,
    "lon": 103.01244,
    "fcode": "HLL",
    "cc2": "",
    "country": "KH",
    "elev": null,
    "dem": 55,
    "province": "Bantey Meanchey"
  },
  {
    "id": "1821645",
    "name": "Phnum Touch",
    "ascii": "Phnum Touch",
    "alt": "Phnom Toh,Phnum Toch,Phnum Touch",
    "lat": 12.35605,
    "lon": 104.77527,
    "fcode": "HLL",
    "cc2": "",
    "country": "KH",
    "elev": null,
    "dem": 85,
    "province": "Kampong Chhnang"
  },
  {
    "id": "1821646",
    "name": "Phnum Touch",
    "ascii": "Phnum Touch",
    "alt": "Phnum Toch,Phnum Touch,ភ្នំតូច",
    "lat": 11.73112,
    "lon": 103.45725,
    "fcode": "HLL",
    "cc2": "",
    "country": "KH",
    "elev": null,
    "dem": 542,
    "province": "Koh Kong"
  },
  {
    "id": "1821647",
    "name": "Phnum Touch",
    "ascii": "Phnum Touch",
    "alt": "Phnom Tauch,Phnom Taûch,Phnum Toch,Phnum Touch",
    "lat": 11.60589,
    "lon": 104.62674,
    "fcode": "HLL",
    "cc2": "",
    "country": "KH",
    "elev": null,
    "dem": 127,
    "province": "Kampong Speu"
  },
  {
    "id": "1821648",
    "name": "Phnum Toch",
    "ascii": "Phnum Toch",
    "alt": "Phnom Toch,Phnum Toch",
    "lat": 11.35636,
    "lon": 104.61941,
    "fcode": "HLL",
    "cc2": "",
    "country": "KH",
    "elev": null,
    "dem": 124,
    "province": "Kampong Speu"
  },
  {
    "id": "1821649",
    "name": "Phnŭm Toch",
    "ascii": "Phnum Toch",
    "alt": "Phnum Tauch,Phnum Toch,Phnŭm Toch,ភ្នំតូច",
    "lat": 10.57903,
    "lon": 103.77921,
    "fcode": "HLL",
    "cc2": "",
    "country": "KH",
    "elev": null,
    "dem": 26,
    "province": "Khaet Preah Sihanouk"
  },
  {
    "id": "1821654",
    "name": "Kaôh Toch",
    "ascii": "Kaoh Toch",
    "alt": "Ilot Sud,Kaoh Toch,Kaôh Toch,កោះតូច",
    "lat": 10.67035,
    "lon": 103.29195,
    "fcode": "ISL",
    "cc2": "",
    "country": "KH",
    "elev": null,
    "dem": -9999,
    "province": "Khaet Preah Sihanouk"
  },
  {
    "id": "1821658",
    "name": "Kaôh Toănhán",
    "ascii": "Kaoh Toanhan",
    "alt": "Kaoh Toanhan,Kas Tian Hain,Kaôh Toănhán",
    "lat": 13.21442,
    "lon": 105.97819,
    "fcode": "ISL",
    "cc2": "",
    "country": "KH",
    "elev": null,
    "dem": 57,
    "province": "Kratie"
  },
  {
    "id": "1821663",
    "name": "Phnum Tnaot",
    "ascii": "Phnum Tnaot",
    "alt": "Phnum Tnaot,Phnum Tnaôt",
    "lat": 12.27175,
    "lon": 103.5228,
    "fcode": "HLL",
    "cc2": "",
    "country": "KH",
    "elev": null,
    "dem": 157,
    "province": "Pursat"
  },
  {
    "id": "1821664",
    "name": "Phnum Tnaôt",
    "ascii": "Phnum Tnaot",
    "alt": "Phnom Tenot,Phnum Tnaot,Phnum Tnaôt",
    "lat": 13.48362,
    "lon": 104.69777,
    "fcode": "HLLS",
    "cc2": "",
    "country": "KH",
    "elev": null,
    "dem": 248,
    "province": "Preah Vihear"
  },
  {
    "id": "1821666",
    "name": "Kaôh Tnaôt",
    "ascii": "Kaoh Tnaot",
    "alt": "Kaoh Tnaot,Kas Tnol,Kaôh Tnaôt",
    "lat": 12.88526,
    "lon": 105.98462,
    "fcode": "ISL",
    "cc2": "",
    "country": "KH",
    "elev": null,
    "dem": 43,
    "province": "Kratie"
  },
  {
    "id": "1821667",
    "name": "Phnum Tmat Pông",
    "ascii": "Phnum Tmat Pong",
    "alt": "Phnom Thmat Pong,Phnum Tmat Pong,Phnum Tmat Pông",
    "lat": 11.57265,
    "lon": 104.68112,
    "fcode": "HLL",
    "cc2": "",
    "country": "KH",
    "elev": null,
    "dem": 69,
    "province": "Kandal"
  },
  {
    "id": "1821671",
    "name": "Phnum Ti Sout",
    "ascii": "Phnum Ti Sout",
    "alt": "Phnom Tissot,Phnum Ti Sout,Phnum Tisot,Phnum Tissot,Phnum Tĭsot,Phnŭm Tissot,ភ្នំទិសូត",
    "lat": 11.56344,
    "lon": 104.42753,
    "fcode": "HLL",
    "cc2": "",
    "country": "KH",
    "elev": null,
    "dem": 103,
    "province": "Kampong Speu"
  },
  {
    "id": "1821672",
    "name": "Phnum Ti Rey",
    "ascii": "Phnum Ti Rey",
    "alt": "Phnom Tirei,Phnum Ti Rey,Phnum Tirei,Phnum Tirey,Phnŭm Tirei,Phnŭm Tirey,ភ្នំ ទីរៃ",
    "lat": 12.27773,
    "lon": 102.8144,
    "fcode": "MT",
    "cc2": "",
    "country": "KH",
    "elev": null,
    "dem": 814,
    "province": "Pursat"
  },
  {
    "id": "1821676",
    "name": "Phnum Tieng Khae",
    "ascii": "Phnum Tieng Khae",
    "alt": "Phnum Tieng Khae,Phnum Tieng Khe,Phnum Tiĕng Khê,Phnŭm Tiĕng Khê,ភ្នំទៀងខែ",
    "lat": 14.30615,
    "lon": 106.02552,
    "fcode": "HLL",
    "cc2": "",
    "country": "KH",
    "elev": null,
    "dem": 333,
    "province": "Stung Treng"
  },
  {
    "id": "1821679",
    "name": "Phnum Thum Nore",
    "ascii": "Phnum Thum Nore",
    "alt": "Phnom Thom,Phnom Thom Norel,Phnum Thum Nore,Phnum Thum Norel,Phnum Thum Nôrél",
    "lat": 13.79868,
    "lon": 105.73312,
    "fcode": "HLL",
    "cc2": "",
    "country": "KH",
    "elev": null,
    "dem": 307,
    "province": "Stung Treng"
  },
  {
    "id": "1821691",
    "name": "Phnum Thum",
    "ascii": "Phnum Thum",
    "alt": "Phnom Thom,Phnum Thom,Phnum Thum,Phnŭm Thom,ភ្នំធំ",
    "lat": 12.90201,
    "lon": 102.56309,
    "fcode": "MT",
    "cc2": "",
    "country": "KH",
    "elev": 389,
    "dem": 188,
    "province": "Pailin"
  },
  {
    "id": "1821692",
    "name": "Phnum Thum",
    "ascii": "Phnum Thum",
    "alt": "Phnom Thom,Phnom Thôm,Phnum Thum",
    "lat": 11.36644,
    "lon": 104.5703,
    "fcode": "MT",
    "cc2": "",
    "country": "KH",
    "elev": null,
    "dem": 462,
    "province": "Kampong Speu"
  },
  {
    "id": "1821693",
    "name": "Phnum Thum",
    "ascii": "Phnum Thum",
    "alt": "Phnum Thom,Phnum Thum,Phnŭm Thom",
    "lat": 10.92721,
    "lon": 104.34605,
    "fcode": "MT",
    "cc2": "",
    "country": "KH",
    "elev": null,
    "dem": 416,
    "province": "Kampot"
  },
  {
    "id": "1821694",
    "name": "Phnum Thum",
    "ascii": "Phnum Thum",
    "alt": "Phnum Thom,Phnum Thum",
    "lat": 10.64641,
    "lon": 104.2897,
    "fcode": "HLL",
    "cc2": "",
    "country": "KH",
    "elev": null,
    "dem": 288,
    "province": "Kampot"
  },
  {
    "id": "1821695",
    "name": "Phnŭm Thom",
    "ascii": "Phnum Thom",
    "alt": "Phnom Thom,Phnum Thom,Phnum Thum,Phnŭm Thom,ភ្នំធំ",
    "lat": 13.44147,
    "lon": 103.00856,
    "fcode": "HLL",
    "cc2": "",
    "country": "KH",
    "elev": null,
    "dem": 109,
    "province": "Bantey Meanchey"
  },
  {
    "id": "1821696",
    "name": "Phnum Thum",
    "ascii": "Phnum Thum",
    "alt": "Phnom Tom,Phnum Thom,Phnum Thum,Phnŭm Thom,ភ្នំធំ",
    "lat": 12.74256,
    "lon": 103.21039,
    "fcode": "HLL",
    "cc2": "",
    "country": "KH",
    "elev": null,
    "dem": 158,
    "province": "Battambang"
  },
  {
    "id": "1821697",
    "name": "Phnum Thum",
    "ascii": "Phnum Thum",
    "alt": "Phnom Thom,Phnum Thom,Phnum Thum,Phnŭm Thom,Pnom Thom",
    "lat": 11.89937,
    "lon": 104.93381,
    "fcode": "HLL",
    "cc2": "",
    "country": "KH",
    "elev": null,
    "dem": 84,
    "province": "Kampong Cham"
  },
  {
    "id": "1821698",
    "name": "Phnum Thum",
    "ascii": "Phnum Thum",
    "alt": "Phnum Thom,Phnum Thum,Phnŭm Thom,ភ្នំធំ",
    "lat": 11.40513,
    "lon": 103.14381,
    "fcode": "HLL",
    "cc2": "",
    "country": "KH",
    "elev": null,
    "dem": 210,
    "province": "Koh Kong"
  },
  {
    "id": "1821699",
    "name": "Phnum Thnum",
    "ascii": "Phnum Thnum",
    "alt": "Phnom Thom,Phnum Thnum,Phnum Thum",
    "lat": 11.39233,
    "lon": 104.3446,
    "fcode": "HLL",
    "cc2": "",
    "country": "KH",
    "elev": null,
    "dem": 211,
    "province": "Kampong Speu"
  },
  {
    "id": "1821700",
    "name": "Phnum Thum",
    "ascii": "Phnum Thum",
    "alt": "Phnom Thom,Phnum Thum",
    "lat": 10.52133,
    "lon": 104.31248,
    "fcode": "HLL",
    "cc2": "",
    "country": "KH",
    "elev": null,
    "dem": 258,
    "province": "Kep"
  },
  {
    "id": "1821711",
    "name": "Kaôh Thom",
    "ascii": "Kaoh Thom",
    "alt": "Kaoh Thom,Kaoh Thum,Kas Thom,Kaôh Thom,Kaôh Thum,Koh Thom,កោះធំ",
    "lat": 11.16006,
    "lon": 105.0745,
    "fcode": "ISL",
    "cc2": "",
    "country": "KH",
    "elev": null,
    "dem": 5,
    "province": "Kandal"
  },
  {
    "id": "1821720",
    "name": "Phnŭm Thaul",
    "ascii": "Phnum Thaul",
    "alt": "Phnom Thaul,Phnum Thaul,Phnum Thol,Phnŭm Thaul,Phnŭm Thol",
    "lat": 11.99732,
    "lon": 102.9211,
    "fcode": "MT",
    "cc2": "",
    "country": "KH",
    "elev": 1029,
    "dem": 1009,
    "province": "Koh Kong"
  },
  {
    "id": "1821724",
    "name": "Phnum Thngoăs",
    "ascii": "Phnum Thngoas",
    "alt": "Phnom Phngeas,Phnom Phngoas,Phnum Thngeas,Phnum Thngoas,Phnum Thngoăs,Phnŭm Thngeas",
    "lat": 12.90759,
    "lon": 103.02696,
    "fcode": "HLL",
    "cc2": "",
    "country": "KH",
    "elev": null,
    "dem": 112,
    "province": "Battambang"
  },
  {
    "id": "1821725",
    "name": "Phnum Thna Ruessei",
    "ascii": "Phnum Thna Ruessei",
    "alt": "Phnom Tram Russei,Phnum Thna Ruessei,Phnum Thnam Roessei,Phnum Thnam Russei,Phnum Thnăm Rœssei,Phnŭm Thnăm Rŭssei",
    "lat": 12.12314,
    "lon": 103.8349,
    "fcode": "MT",
    "cc2": "",
    "country": "KH",
    "elev": null,
    "dem": 465,
    "province": "Pursat"
  },
  {
    "id": "1821729",
    "name": "Phnum Thnal",
    "ascii": "Phnum Thnal",
    "alt": "Phnum Thnal,Phnum Thnál,Phnŭm Thnal,ភ្នំថ្នាល",
    "lat": 12.68555,
    "lon": 106.51499,
    "fcode": "HLL",
    "cc2": "",
    "country": "KH",
    "elev": null,
    "dem": 176,
    "province": "Mondulkiri"
  },
  {
    "id": "1821731",
    "name": "Kaôh Thmei",
    "ascii": "Kaoh Thmei",
    "alt": "Kaoh Thmei,Kas Tmei,Kaôh Thmei,កោះថ្មី",
    "lat": 12.52368,
    "lon": 104.3652,
    "fcode": "ISLS",
    "cc2": "",
    "country": "KH",
    "elev": null,
    "dem": 8,
    "province": "Pursat"
  },
  {
    "id": "1821732",
    "name": "Kaôh Thmei",
    "ascii": "Kaoh Thmei",
    "alt": "Hon Phu Du,Ile du Milieu,Kaoh Thmei,Kaôh Thmei,Koh Thmei,Koh Thmey,Mileau,Phu do,kaoh Thmei,kaôh Thmei,kkoteumeiseom,Île du Milieu,កោះថម,កោះថ្មី,꼬트메이섬",
    "lat": 10.48055,
    "lon": 103.77211,
    "fcode": "ISL",
    "cc2": "",
    "country": "KH",
    "elev": null,
    "dem": 20,
    "province": "Khaet Preah Sihanouk"
  },
  {
    "id": "1821734",
    "name": "Phnum Thma Thaem",
    "ascii": "Phnum Thma Thaem",
    "alt": "Phnum Tamar Them,Phnum Thma Thaem,Phnum Thma Them,Phnum Thmâ Thêm",
    "lat": 10.50287,
    "lon": 103.72939,
    "fcode": "HLL",
    "cc2": "",
    "country": "KH",
    "elev": null,
    "dem": 95,
    "province": "Khaet Preah Sihanouk"
  },
  {
    "id": "1821736",
    "name": "Phnŭm Thmâr Roang",
    "ascii": "Phnum Thmar Roang",
    "alt": "Phnom Thmar Roang,Phnum Thma Roung,Phnum Thmar Roang,Phnŭm Thmâ Roŭng,Phnŭm Thmâr Roang",
    "lat": 12.38552,
    "lon": 102.79477,
    "fcode": "MT",
    "cc2": "",
    "country": "KH",
    "elev": 1181,
    "dem": 1176,
    "province": "Pursat"
  },
  {
    "id": "1821737",
    "name": "Phnum Tma Roket",
    "ascii": "Phnum Tma Roket",
    "alt": "Phnum Thmar Ket,Phnum Thmar Két,Phnum Tma Roket,Phnŭm Thmar Két,ភ្នំត្មារកេត",
    "lat": 11.87197,
    "lon": 103.76163,
    "fcode": "MT",
    "cc2": "",
    "country": "KH",
    "elev": null,
    "dem": 1286,
    "province": "Koh Kong"
  },
  {
    "id": "1821740",
    "name": "Phnum Thmâ Pŭt",
    "ascii": "Phnum Thma Put",
    "alt": "Phnom Thmar Pul,Phnom Thmâr Pul,Phnum Thma Put,Phnum Thmâ Pŭt",
    "lat": 11.29031,
    "lon": 104.5777,
    "fcode": "MT",
    "cc2": "",
    "country": "KH",
    "elev": null,
    "dem": 359,
    "province": "Kampong Speu"
  },
  {
    "id": "1821741",
    "name": "Phnum Thmâ Pŭk",
    "ascii": "Phnum Thma Puk",
    "alt": "",
    "lat": 11.29221,
    "lon": 104.50322,
    "fcode": "PK",
    "cc2": "",
    "country": "KH",
    "elev": null,
    "dem": 402,
    "province": "Kampong Speu"
  },
  {
    "id": "1821742",
    "name": "Phnum Thma Prus",
    "ascii": "Phnum Thma Prus",
    "alt": "Phnom Thmar Prus,Phnom Thmâr Prus,Phnum Thma Prus,Phnum Thmar Prus,Phnum Thmâ Prŭs,Phnŭm Thmâr Prŭs,ភ្នំថ្មព្រុស",
    "lat": 12.86643,
    "lon": 102.96843,
    "fcode": "HLL",
    "cc2": "",
    "country": "KH",
    "elev": null,
    "dem": 147,
    "province": "Battambang"
  },
  {
    "id": "1821745",
    "name": "Phnum Thma Kor",
    "ascii": "Phnum Thma Kor",
    "alt": "Phnum Thma Kor,Phnum Thmâ Kôr",
    "lat": 12.15129,
    "lon": 106.12838,
    "fcode": "HLL",
    "cc2": "",
    "country": "KH",
    "elev": null,
    "dem": 121,
    "province": "Kratie"
  },
  {
    "id": "1821749",
    "name": "Phnum Thma Kaev",
    "ascii": "Phnum Thma Kaev",
    "alt": "Phnum Thma Kaev,Phnum Thma Kev,Phnum Thmar Kev,Phnum Thmâ Kêv,Phnum Tmakeou,Phnŭm Thmar Kêv",
    "lat": 10.68657,
    "lon": 104.03688,
    "fcode": "RDGE",
    "cc2": "",
    "country": "KH",
    "elev": null,
    "dem": 892,
    "province": "Kampot"
  },
  {
    "id": "1821750",
    "name": "Phnum Thma Kaev",
    "ascii": "Phnum Thma Kaev",
    "alt": "Phnom Thmar Keo,Phnom Thmar Kéo,Phnum Thma Kaev,Phnum Thma Kev,Phnum Thmar Keo,Phnum Thmâ Kêv,Phnŭm Thmâr Kêo,ភ្នំថ្មកែវ",
    "lat": 11.89555,
    "lon": 103.79553,
    "fcode": "MT",
    "cc2": "",
    "country": "KH",
    "elev": null,
    "dem": 1307,
    "province": "Koh Kong"
  },
  {
    "id": "1821751",
    "name": "Phnum Thma Keh",
    "ascii": "Phnum Thma Keh",
    "alt": "Phnom Thmar Kes,Phnum Thma Keh,Phnum Thmar Kes,Phnum Thmâ Kéh,Phnŭm Thmâr Kés,ភ្នំថ្មកេះ",
    "lat": 12.3953,
    "lon": 103.38418,
    "fcode": "MT",
    "cc2": "",
    "country": "KH",
    "elev": null,
    "dem": 516,
    "province": "Pursat"
  },
  {
    "id": "1821753",
    "name": "Phnum Thma Doh",
    "ascii": "Phnum Thma Doh",
    "alt": "Phnom Thmados,Phnum Thma Doh,Phnum Thmâ Dŏh",
    "lat": 11.30387,
    "lon": 104.79883,
    "fcode": "HLL",
    "cc2": "",
    "country": "KH",
    "elev": null,
    "dem": 96,
    "province": "Takeo"
  },
  {
    "id": "1821754",
    "name": "Phnum Thmâ Da",
    "ascii": "Phnum Thma Da",
    "alt": "Irapedao,Phnum Thma Da,Phnum Thmâ Da",
    "lat": 12.21218,
    "lon": 104.59464,
    "fcode": "HLL",
    "cc2": "",
    "country": "KH",
    "elev": null,
    "dem": 186,
    "province": "Kampong Chhnang"
  },
  {
    "id": "1821755",
    "name": "Phnum Thma Chang",
    "ascii": "Phnum Thma Chang",
    "alt": "Phnum Thma Chang,Phnum Thmar Chang,Phnum Thmâ Chăng,Phnŭm Thmâr Chang,Phnŭm Thmâr Chăng,ភ្នំ ថ្មចាំង",
    "lat": 12.44658,
    "lon": 103.02153,
    "fcode": "MT",
    "cc2": "",
    "country": "KH",
    "elev": null,
    "dem": 1326,
    "province": "Pursat"
  },
  {
    "id": "1821757",
    "name": "Phnum Thma Angkaeb",
    "ascii": "Phnum Thma Angkaeb",
    "alt": "Phnum Thma Angkaeb,Phnum Thma Angkeb,Phnum Thma Angkep,Phnum Thmâ Ângkêb,Phnŭm Thmâ Ângkêp,ភ្នំថ្មអង្កែប",
    "lat": 12.3732,
    "lon": 104.23779,
    "fcode": "MT",
    "cc2": "",
    "country": "KH",
    "elev": null,
    "dem": 338,
    "province": "Pursat"
  },
  {
    "id": "1821763",
    "name": "Phnum Thma",
    "ascii": "Phnum Thma",
    "alt": "Phnum Thma,Phnum Thmâ",
    "lat": 10.64074,
    "lon": 104.84309,
    "fcode": "HLL",
    "cc2": "",
    "country": "KH",
    "elev": null,
    "dem": 293,
    "province": "Takeo"
  },
  {
    "id": "1821767",
    "name": "Phnum Thlaen",
    "ascii": "Phnum Thlaen",
    "alt": "Phnum Thlaen,Phnum Thlen,Phnum Thlên",
    "lat": 13.09341,
    "lon": 102.93524,
    "fcode": "HLL",
    "cc2": "",
    "country": "KH",
    "elev": null,
    "dem": 183,
    "province": "Battambang"
  },
  {
    "id": "1821770",
    "name": "Phnum Thkov",
    "ascii": "Phnum Thkov",
    "alt": "Phnom Tkau,Phnum Thkov",
    "lat": 10.53209,
    "lon": 104.42289,
    "fcode": "HLL",
    "cc2": "",
    "country": "KH",
    "elev": null,
    "dem": 62,
    "province": "Kampot"
  },
  {
    "id": "1821773",
    "name": "Phnum Thepakdei",
    "ascii": "Phnum Thepakdei",
    "alt": "Phnom Tippedey,Phnum Thepakdei,Phnum Thipdei,Phnum Thippadei,Phnŭm Thippâdei,ភ្នំធិបតី",
    "lat": 12.86458,
    "lon": 103.26198,
    "fcode": "HLL",
    "cc2": "",
    "country": "KH",
    "elev": null,
    "dem": 249,
    "province": "Battambang"
  },
  {
    "id": "1821778",
    "name": "Phnum Têt Srei",
    "ascii": "Phnum Tet Srei",
    "alt": "Phnom Tet,Phnum Tet Srei,Phnum Têt Srei,Pnom Tet",
    "lat": 12.19112,
    "lon": 105.30579,
    "fcode": "HLL",
    "cc2": "",
    "country": "KH",
    "elev": null,
    "dem": 197,
    "province": "Kampong Cham"
  },
  {
    "id": "1821779",
    "name": "Phnum Té Poŭn",
    "ascii": "Phnum Te Poun",
    "alt": "Phnom Te Poun,Phnum Te Poun,Phnum Té Poŭn,Phu Te Poun,Pou Te Poun",
    "lat": 13.89226,
    "lon": 107.00606,
    "fcode": "MT",
    "cc2": "",
    "country": "KH",
    "elev": null,
    "dem": 421,
    "province": "Ratanakiri"
  },
  {
    "id": "1821782",
    "name": "Phnŭm Tĕk",
    "ascii": "Phnum Tek",
    "alt": "Phnom Thap,Phnum Tek,Phnŭm Tĕk",
    "lat": 13.33052,
    "lon": 102.39914,
    "fcode": "HLL",
    "cc2": "",
    "country": "KH",
    "elev": 345,
    "dem": 319,
    "province": "Battambang"
  },
  {
    "id": "1821784",
    "name": "Phnum Teal",
    "ascii": "Phnum Teal",
    "alt": "Phnom Teal,Phnum Teal,Phnum Téal",
    "lat": 12.30743,
    "lon": 103.96252,
    "fcode": "HLL",
    "cc2": "",
    "country": "KH",
    "elev": null,
    "dem": 253,
    "province": "Pursat"
  },
  {
    "id": "1821785",
    "name": "Phnum Teab",
    "ascii": "Phnum Teab",
    "alt": "Phnum Teab,Phnum Teap,Phnum Téab,Phnŭm Téap,ភ្នំទាប",
    "lat": 12.14282,
    "lon": 103.52375,
    "fcode": "MT",
    "cc2": "",
    "country": "KH",
    "elev": null,
    "dem": 594,
    "province": "Pursat"
  },
  {
    "id": "1821788",
    "name": "Phnum Tê",
    "ascii": "Phnum Te",
    "alt": "Phnum Te,Phnum The,Phnum Tê,Phnŭm Thé,Phu The",
    "lat": 13.76052,
    "lon": 105.92829,
    "fcode": "HLL",
    "cc2": "",
    "country": "KH",
    "elev": null,
    "dem": 299,
    "province": "Stung Treng"
  },
  {
    "id": "1821791",
    "name": "Kaôh Tbong Khla",
    "ascii": "Kaoh Tbong Khla",
    "alt": "Kaoh Tbong Khla,Kas Beng Khla,Kaôh Tbong Khla",
    "lat": 13.24312,
    "lon": 105.97682,
    "fcode": "ISL",
    "cc2": "",
    "country": "KH",
    "elev": null,
    "dem": 48,
    "province": "Stung Treng"
  },
  {
    "id": "1821796",
    "name": "Phnum Tbaeng Thum",
    "ascii": "Phnum Tbaeng Thum",
    "alt": "Phnom Taben Tom,Phnum Tbaeng Thum,Phnum Tbeng Thom,Phnum Tbeng Thum,Phnum Tbêng Thum,Phnŭm Tbêng Thom",
    "lat": 11.02454,
    "lon": 104.52289,
    "fcode": "MT",
    "cc2": "",
    "country": "KH",
    "elev": null,
    "dem": 353,
    "province": "Takeo"
  },
  {
    "id": "1821799",
    "name": "Phnum Tbêng",
    "ascii": "Phnum Tbeng",
    "alt": "Phnom Tabeng,Phnom Thbeng,Phnum Tbeng,Phnum Tbêng,Phu Tabeng,Pnom Tabeng",
    "lat": 13.78597,
    "lon": 104.75545,
    "fcode": "MTS",
    "cc2": "",
    "country": "KH",
    "elev": null,
    "dem": 530,
    "province": "Preah Vihear"
  },
  {
    "id": "1821800",
    "name": "Phnum Tbaeng",
    "ascii": "Phnum Tbaeng",
    "alt": "Phnum Tbaeng,Phnum Tbeng,Phnum Tbêng,Phnŭm Tbêng,ភ្នំត្បែង",
    "lat": 13.70439,
    "lon": 104.81635,
    "fcode": "MT",
    "cc2": "",
    "country": "KH",
    "elev": null,
    "dem": 498,
    "province": "Preah Vihear"
  },
  {
    "id": "1821801",
    "name": "Phnum Tbaeng",
    "ascii": "Phnum Tbaeng",
    "alt": "Phnum Tbaeng,Phnum Tbeng,Phnum Tbêng,Phnŭm Tbêng",
    "lat": 13.60669,
    "lon": 104.95449,
    "fcode": "MT",
    "cc2": "",
    "country": "KH",
    "elev": null,
    "dem": 331,
    "province": "Preah Vihear"
  },
  {
    "id": "1821802",
    "name": "Phnum Tbêng",
    "ascii": "Phnum Tbeng",
    "alt": "Phnom Tabeng,Phnum Tbeng,Phnum Tbêng",
    "lat": 13.43989,
    "lon": 105.41184,
    "fcode": "HLL",
    "cc2": "",
    "country": "KH",
    "elev": null,
    "dem": 164,
    "province": "Preah Vihear"
  },
  {
    "id": "1821803",
    "name": "Phnum Tbaeng",
    "ascii": "Phnum Tbaeng",
    "alt": "Phnom Tabeng,Phnum Tbaeng,Phnum Tbeng,Phnum Tbêng",
    "lat": 10.55325,
    "lon": 103.69407,
    "fcode": "HLL",
    "cc2": "",
    "country": "KH",
    "elev": null,
    "dem": 154,
    "province": "Khaet Preah Sihanouk"
  },
  {
    "id": "1821805",
    "name": "Kaoh Tbal",
    "ascii": "Kaoh Tbal",
    "alt": "Hon Dung,Hòn Dung,Kaoh Tbal,Kaôh Tbăl",
    "lat": 10.42488,
    "lon": 104.34448,
    "fcode": "ISL",
    "cc2": "",
    "country": "KH",
    "elev": null,
    "dem": 48,
    "province": "Kep"
  },
  {
    "id": "1821809",
    "name": "Phnŭm Tau",
    "ascii": "Phnum Tau",
    "alt": "Phnum Pov,Phnum Tau,Phnŭm Tau,ភ្នំ តៅ",
    "lat": 12.30822,
    "lon": 102.85169,
    "fcode": "MT",
    "cc2": "",
    "country": "KH",
    "elev": null,
    "dem": 1143,
    "province": "Pursat"
  },
  {
    "id": "1821811",
    "name": "Phnum Ta Tuot",
    "ascii": "Phnum Ta Tuot",
    "alt": "Phnom Tatot,Phnum Ta Tuot,Phnum Ta Tuŏt",
    "lat": 10.70894,
    "lon": 104.13902,
    "fcode": "RDGE",
    "cc2": "",
    "country": "KH",
    "elev": null,
    "dem": 439,
    "province": "Kampot"
  },
  {
    "id": "1821813",
    "name": "Phnum Ta Trok",
    "ascii": "Phnum Ta Trok",
    "alt": "Phnom Latrok,Phnum Ta Trok,Phnum Ta Trŏk",
    "lat": 12.82579,
    "lon": 102.78209,
    "fcode": "HLL",
    "cc2": "",
    "country": "KH",
    "elev": null,
    "dem": 207,
    "province": "Battambang"
  },
  {
    "id": "1821820",
    "name": "Phnum Ta Thieng",
    "ascii": "Phnum Ta Thieng",
    "alt": "Phnum Ta Thieng,Phnum Ta Thiĕng,Phnŭm Ta Thieng,ភ្នំតាកៀង",
    "lat": 12.63895,
    "lon": 102.80428,
    "fcode": "MT",
    "cc2": "",
    "country": "KH",
    "elev": null,
    "dem": 431,
    "province": "Battambang"
  },
  {
    "id": "1821821",
    "name": "Phnum Tatech",
    "ascii": "Phnum Tatech",
    "alt": "Phnom Tateick,Phnum Ta Tech,Phnum Ta Téch,Phnum Tatech,Phnum Tateick,Phnŭm Tateick,ភ្នំ តាតេច",
    "lat": 11.05289,
    "lon": 104.00705,
    "fcode": "MT",
    "cc2": "",
    "country": "KH",
    "elev": null,
    "dem": 1043,
    "province": "Khaet Preah Sihanouk"
  },
  {
    "id": "1821822",
    "name": "Kaôh Ta Téam",
    "ascii": "Kaoh Ta Team",
    "alt": "Channel Island,Ile du Chenal,Kaoh Ta Team,Kaôh Ta Téam,កោះតាទាម",
    "lat": 10.80325,
    "lon": 103.19773,
    "fcode": "ISL",
    "cc2": "",
    "country": "KH",
    "elev": null,
    "dem": 86,
    "province": "Koh Kong"
  },
  {
    "id": "1821823",
    "name": "Phnum Ta Tea",
    "ascii": "Phnum Ta Tea",
    "alt": "Phnom Tatea,Phnum Ta Tea,Phnum Tatea,Phnum Tati,Phnum Tatéa,Phnŭm Tati,ភ្នំតាទា",
    "lat": 13.67259,
    "lon": 103.87105,
    "fcode": "HLL",
    "cc2": "",
    "country": "KH",
    "elev": null,
    "dem": 271,
    "province": "Siem Reap"
  },
  {
    "id": "1821826",
    "name": "Kaoh Ta Suy",
    "ascii": "Kaoh Ta Suy",
    "alt": "Kaoh Ta Suy,Kaoh Tasuy,Kas Tasuy,Kaôh Tasŭy,Kâs Tasuy,កោះតាស៊ុយ",
    "lat": 12.27592,
    "lon": 105.89247,
    "fcode": "ISL",
    "cc2": "",
    "country": "KH",
    "elev": null,
    "dem": 18,
    "province": "Kratie"
  },
  {
    "id": "1821827",
    "name": "Phnŭm Ta Srŏk Kăm",
    "ascii": "Phnum Ta Srok Kam",
    "alt": "Phnom Thas Rokam,Phnum Ta Srok Kam,Phnum Ta Srokam,Phnŭm Ta Srŏk Kăm,Phnŭm Ta Srŏkam",
    "lat": 13.2778,
    "lon": 102.38894,
    "fcode": "HLL",
    "cc2": "",
    "country": "KH",
    "elev": 324,
    "dem": 301,
    "province": "Battambang"
  },
  {
    "id": "1821829",
    "name": "Phnum Ta Soh",
    "ascii": "Phnum Ta Soh",
    "alt": "Phnom Tassah,Phnom Tassoh,Phnum Ta Soh,Phnum Ta Sŏh",
    "lat": 13.5304,
    "lon": 104.51429,
    "fcode": "MT",
    "cc2": "",
    "country": "KH",
    "elev": null,
    "dem": 459,
    "province": "Siem Reap"
  },
  {
    "id": "1821837",
    "name": "Phnŭm Ta Sda",
    "ascii": "Phnum Ta Sda",
    "alt": "Phnom Tha Sda,Phnum Ta Sda,Phnŭm Ta Sda",
    "lat": 13.42485,
    "lon": 102.37727,
    "fcode": "HLL",
    "cc2": "",
    "country": "KH",
    "elev": 247,
    "dem": 237,
    "province": "Battambang"
  },
  {
    "id": "1821840",
    "name": "Phnum Ta Sam",
    "ascii": "Phnum Ta Sam",
    "alt": "Phnom Ta Sam,Phnum Ta Sam,Phnum Ta Sâm,Phnŭm Ta Sâm",
    "lat": 12.18286,
    "lon": 104.43493,
    "fcode": "HLL",
    "cc2": "",
    "country": "KH",
    "elev": null,
    "dem": 225,
    "province": "Kampong Chhnang"
  },
  {
    "id": "1821850",
    "name": "Phnum Ta Pok Tang Doung",
    "ascii": "Phnum Ta Pok Tang Doung",
    "alt": "Phnum Ta Pok Tang Doung,Phnum Tapok Tang Dong,Phnum Tapŏk Tăng Dong",
    "lat": 10.69995,
    "lon": 104.73016,
    "fcode": "HLL",
    "cc2": "",
    "country": "KH",
    "elev": null,
    "dem": 247,
    "province": "Takeo"
  },
  {
    "id": "1821854",
    "name": "Chong Ta Phet",
    "ascii": "Chong Ta Phet",
    "alt": "Chong Ta Phek,Chong Ta Phet",
    "lat": 14.19861,
    "lon": 102.945,
    "fcode": "PASS",
    "cc2": "",
    "country": "KH",
    "elev": null,
    "dem": 396,
    "province": "Buri Ram Province"
  },
  {
    "id": "1821857",
    "name": "Phnum Ta Pang",
    "ascii": "Phnum Ta Pang",
    "alt": "Phnum Ta Pang,Phnum Tapaing,Phnum Tapang,Phnum Tapăng,Phnŭm Tapaing",
    "lat": 10.60973,
    "lon": 103.73851,
    "fcode": "HLL",
    "cc2": "",
    "country": "KH",
    "elev": null,
    "dem": 221,
    "province": "Khaet Preah Sihanouk"
  },
  {
    "id": "1821858",
    "name": "Phnŭm Ta Pa Khaô",
    "ascii": "Phnum Ta Pa Khao",
    "alt": "Phnom Ta Pa Khao,Phnum Ta Pa Khao,Phnŭm Ta Pa Khaô",
    "lat": 13.16064,
    "lon": 102.51773,
    "fcode": "HLL",
    "cc2": "",
    "country": "KH",
    "elev": 167,
    "dem": 164,
    "province": "Battambang"
  },
  {
    "id": "1821860",
    "name": "Phnum Taong Nhul",
    "ascii": "Phnum Taong Nhul",
    "alt": "Phnom Dak Po,Phnom Dak Pô,Phnum Taong Nhol,Phnum Taong Nhul,Phnum Taông Nhŭl,Phnŭm Taông Nhŏl",
    "lat": 12.40154,
    "lon": 104.77315,
    "fcode": "HLL",
    "cc2": "",
    "country": "KH",
    "elev": null,
    "dem": 184,
    "province": "Kampong Chhnang"
  },
  {
    "id": "1821862",
    "name": "Phnŭm Ta Nou",
    "ascii": "Phnum Ta Nou",
    "alt": "Phnom Ta Nos,Phnum Ta Nou,Phnum Ta Noŭ,Phnŭm Ta Nou,ភ្នំតានៅ",
    "lat": 12.5589,
    "lon": 103.13035,
    "fcode": "MT",
    "cc2": "",
    "country": "KH",
    "elev": null,
    "dem": 805,
    "province": "Battambang"
  },
  {
    "id": "1821866",
    "name": "Phnum Tang Yu",
    "ascii": "Phnum Tang Yu",
    "alt": "Phnom Taing You,Phnum Tang Yu,Phnum Tang Yur,Phnŭm Tăng Yu,Phnŭm Tăng Yur",
    "lat": 13.13949,
    "lon": 102.57377,
    "fcode": "HLL",
    "cc2": "",
    "country": "KH",
    "elev": 136,
    "dem": 123,
    "province": "Battambang"
  },
  {
    "id": "1821867",
    "name": "Phnum Tangyu",
    "ascii": "Phnum Tangyu",
    "alt": "Phnom Tang Tu,Phnom Tang Tū,Phnum Tangyu,Phnum Tăngyu",
    "lat": 13.32834,
    "lon": 106.08973,
    "fcode": "HLL",
    "cc2": "",
    "country": "KH",
    "elev": null,
    "dem": 90,
    "province": "Kratie"
  },
  {
    "id": "1821870",
    "name": "Phnum Tang Phlouch",
    "ascii": "Phnum Tang Phlouch",
    "alt": "Massif de Tang Phloch,Phnum Tang Phloch,Phnum Tang Phlouch,Phnum Tăng Phloch,Phnŭm Tăng Phloch,ភ្នំតាំងផ្លូច",
    "lat": 12.01843,
    "lon": 104.13559,
    "fcode": "MTS",
    "cc2": "",
    "country": "KH",
    "elev": null,
    "dem": 945,
    "province": "Kampong Speu"
  },
  {
    "id": "1821871",
    "name": "Phnum Tang Phlouch",
    "ascii": "Phnum Tang Phlouch",
    "alt": "Phnum Tang Phloch,Phnum Tang Phlouch,Phnum Tăng Phloch,Phnŭm Tăng Phloch,ភ្នំតាំងផ្លូច",
    "lat": 11.95408,
    "lon": 104.05108,
    "fcode": "MT",
    "cc2": "",
    "country": "KH",
    "elev": null,
    "dem": 805,
    "province": "Pursat"
  },
  {
    "id": "1821872",
    "name": "Phnum Tangku",
    "ascii": "Phnum Tangku",
    "alt": "Phnom Tang Ku,Phnum Tang Ku,Phnum Tangku,Phnum Tăng Ku,Phnŭm Tăng Ku,ភ្នំតាំងគូ",
    "lat": 13.7754,
    "lon": 106.01805,
    "fcode": "HLL",
    "cc2": "",
    "country": "KH",
    "elev": null,
    "dem": 154,
    "province": "Stung Treng"
  },
  {
    "id": "1821880",
    "name": "Phnum Ta Ngaen",
    "ascii": "Phnum Ta Ngaen",
    "alt": "Phnom Chrey,Phnum Ta Ngaen,Phnum Ta Ngen,Phnum Ta Ngên",
    "lat": 13.05395,
    "lon": 102.97881,
    "fcode": "HLL",
    "cc2": "",
    "country": "KH",
    "elev": null,
    "dem": 220,
    "province": "Battambang"
  },
  {
    "id": "1821881",
    "name": "Phnŭm Ta Ngan",
    "ascii": "Phnum Ta Ngan",
    "alt": "Phnom Ta Ngen,Phnom Ta Ngĕn,Phnum Ta Ngan,Phnŭm Ta Ngan",
    "lat": 13.32656,
    "lon": 102.36372,
    "fcode": "HLL",
    "cc2": "",
    "country": "KH",
    "elev": 403,
    "dem": 301,
    "province": "Battambang"
  },
  {
    "id": "1821882",
    "name": "Phnum Ta Ngeal",
    "ascii": "Phnum Ta Ngeal",
    "alt": "Phnum Ta Ngal,Phnum Ta Ngeal,Phnŭm Ta Ngal,ភ្នំ តាងាល",
    "lat": 13.83674,
    "lon": 103.15464,
    "fcode": "HLL",
    "cc2": "",
    "country": "KH",
    "elev": null,
    "dem": 136,
    "province": "Bantey Meanchey"
  },
  {
    "id": "1821884",
    "name": "Kaôh Tang",
    "ascii": "Kaoh Tang",
    "alt": "Co Tang,Ile Tang,Kaoh Tang,Kas Tang,Kaw Tang,Kaôh Tang,Koh Tang,Koh Tung,Tang Island,Tankwala Island,Île Tang,កោះតាង",
    "lat": 10.29215,
    "lon": 103.14125,
    "fcode": "ISL",
    "cc2": "",
    "country": "KH",
    "elev": null,
    "dem": 11,
    "province": "Khaet Preah Sihanouk"
  },
  {
    "id": "1821889",
    "name": "Chong Prasat Ta Muan",
    "ascii": "Chong Prasat Ta Muan",
    "alt": "Chong Prasat Ta Muan,Chong Ta Muan",
    "lat": 14.35044,
    "lon": 103.26852,
    "fcode": "PASS",
    "cc2": "",
    "country": "KH",
    "elev": null,
    "dem": 217,
    "province": "Surin Province"
  },
  {
    "id": "1821890",
    "name": "Kaôh Ta Mov",
    "ascii": "Kaoh Ta Mov",
    "alt": "Kaoh Ta Mov,Kas Tamau,Kaôh Ta Mov",
    "lat": 12.39236,
    "lon": 104.58452,
    "fcode": "ISL",
    "cc2": "",
    "country": "KH",
    "elev": null,
    "dem": 13,
    "province": "Kampong Chhnang"
  },
  {
    "id": "1821891",
    "name": "Phnum Ta Moŭk",
    "ascii": "Phnum Ta Mouk",
    "alt": "Phnom Tamok,Phnum Ta Mouk,Phnum Ta Moŭk",
    "lat": 11.28732,
    "lon": 104.60694,
    "fcode": "MT",
    "cc2": "",
    "country": "KH",
    "elev": null,
    "dem": 295,
    "province": "Kampong Speu"
  },
  {
    "id": "1821893",
    "name": "Phnum Ta Ming",
    "ascii": "Phnum Ta Ming",
    "alt": "Phnum Ta Ming,Phnum Taming,Phnŭm Taming,ភ្នំតាមីថ",
    "lat": 12.45744,
    "lon": 102.81816,
    "fcode": "HLL",
    "cc2": "",
    "country": "KH",
    "elev": 358,
    "dem": 336,
    "province": "Battambang"
  },
  {
    "id": "1821896",
    "name": "Phnum Ta Mi",
    "ascii": "Phnum Ta Mi",
    "alt": "Phnom Tamey,Phnum Ta Mi,Phnum Tamei",
    "lat": 10.70477,
    "lon": 104.01093,
    "fcode": "RDGE",
    "cc2": "",
    "country": "KH",
    "elev": null,
    "dem": 1005,
    "province": "Kampot"
  },
  {
    "id": "1821899",
    "name": "Phnum Ta Mau",
    "ascii": "Phnum Ta Mau",
    "alt": "Phnom Tamao,Phnum Ta Mau",
    "lat": 13.62727,
    "lon": 104.13783,
    "fcode": "MT",
    "cc2": "",
    "country": "KH",
    "elev": null,
    "dem": 431,
    "province": "Siem Reap"
  },
  {
    "id": "1821900",
    "name": "Kaôh Tamau",
    "ascii": "Kaoh Tamau",
    "alt": "Kaoh Tamau,Kas Tamou,Kaôh Tamau",
    "lat": 12.95142,
    "lon": 106.02875,
    "fcode": "ISL",
    "cc2": "",
    "country": "KH",
    "elev": null,
    "dem": 40,
    "province": "Kratie"
  },
  {
    "id": "1821904",
    "name": "Phnum Ta Meach",
    "ascii": "Phnum Ta Meach",
    "alt": "Phnum Ta Mach,Phnum Ta Meach,Phnŭm Ta Mach,ភ្នំតាម៉ាច",
    "lat": 11.8767,
    "lon": 103.88541,
    "fcode": "MT",
    "cc2": "",
    "country": "KH",
    "elev": null,
    "dem": 1385,
    "province": "Pursat"
  },
  {
    "id": "1821905",
    "name": "Phnum Tam",
    "ascii": "Phnum Tam",
    "alt": "Phnum Tam,Phnum Tăm,Yok Tam,Yôk Tăm",
    "lat": 12.93931,
    "lon": 107.35482,
    "fcode": "HLL",
    "cc2": "",
    "country": "KH",
    "elev": null,
    "dem": 314,
    "province": "Mondulkiri"
  },
  {
    "id": "1821908",
    "name": "Phnŭm Taliĕng",
    "ascii": "Phnum Talieng",
    "alt": "Phnum Talieng,Phnŭm Taliĕng,ភ្នំតាលៀង",
    "lat": 12.73898,
    "lon": 102.67515,
    "fcode": "MT",
    "cc2": "",
    "country": "KH",
    "elev": 701,
    "dem": 644,
    "province": "Pailin"
  },
  {
    "id": "1821909",
    "name": "Phnum Taléng",
    "ascii": "Phnum Taleng",
    "alt": "Phnum Taleng,Phnum Taléng,Phu Taleng",
    "lat": 13.79408,
    "lon": 105.89615,
    "fcode": "HLL",
    "cc2": "",
    "country": "KH",
    "elev": null,
    "dem": 260,
    "province": "Stung Treng"
  },
  {
    "id": "1821913",
    "name": "Phnum Talas",
    "ascii": "Phnum Talas",
    "alt": "Phnum Talas,Phu Talas,Phu Thala",
    "lat": 13.78494,
    "lon": 105.92701,
    "fcode": "HLL",
    "cc2": "",
    "country": "KH",
    "elev": null,
    "dem": 149,
    "province": "Stung Treng"
  },
  {
    "id": "1821915",
    "name": "Phnum Ta La Mi",
    "ascii": "Phnum Ta La Mi",
    "alt": "Khao Falami,Khao Palami,Phnom Kraub Bay,Phnum Ta La Mi,Phnum Ta Lami,Phnŭm Ta Lami,ភ្នំ តាឡាមី",
    "lat": 11.82379,
    "lon": 102.91977,
    "fcode": "MT",
    "cc2": "",
    "country": "KH",
    "elev": 586,
    "dem": 551,
    "province": "Koh Kong"
  },
  {
    "id": "1821916",
    "name": "Phnum Ta Kout",
    "ascii": "Phnum Ta Kout",
    "alt": "Phnom Takout,Phnum Ta Kout,Phnum Takuot,Phnum Takuŏt,Phnŭm Takuŏt,ភ្នំតាគូត",
    "lat": 12.90326,
    "lon": 102.89816,
    "fcode": "MT",
    "cc2": "",
    "country": "KH",
    "elev": null,
    "dem": 252,
    "province": "Battambang"
  },
  {
    "id": "1821917",
    "name": "Phnum Ta Kung",
    "ascii": "Phnum Ta Kung",
    "alt": "Phnom Ta Kong,Phnum Ta Kung,Phnum Ta Kŭng",
    "lat": 13.59941,
    "lon": 104.08246,
    "fcode": "MT",
    "cc2": "",
    "country": "KH",
    "elev": null,
    "dem": 339,
    "province": "Siem Reap"
  },
  {
    "id": "1821922",
    "name": "Phnŭm Takoŭl",
    "ascii": "Phnum Takoul",
    "alt": "Phnum Takoul,Phnŭm Takoŭl,ភ្នំតាគោល",
    "lat": 12.46037,
    "lon": 102.87692,
    "fcode": "MT",
    "cc2": "",
    "country": "KH",
    "elev": 767,
    "dem": 761,
    "province": "Battambang"
  },
  {
    "id": "1821923",
    "name": "Phnum Ta Kout",
    "ascii": "Phnum Ta Kout",
    "alt": "Phnom Takot,Phnum Ta Kot,Phnum Ta Kout,Phnôm Takôt,Phnŭm Ta Kot",
    "lat": 12.26973,
    "lon": 104.12394,
    "fcode": "MT",
    "cc2": "",
    "country": "KH",
    "elev": null,
    "dem": 417,
    "province": "Pursat"
  },
  {
    "id": "1821925",
    "name": "Kaôh Takôr",
    "ascii": "Kaoh Takor",
    "alt": "Kaoh Takor,Kas Rot,Kaôh Takôr",
    "lat": 12.8534,
    "lon": 105.97022,
    "fcode": "ISL",
    "cc2": "",
    "country": "KH",
    "elev": null,
    "dem": 40,
    "province": "Kratie"
  },
  {
    "id": "1821933",
    "name": "Kaoh Ta Kiev",
    "ascii": "Kaoh Ta Kiev",
    "alt": "Ancestor Kiev's Island,Ancestor Kiev’s Island,Bay Island,Ile de la Baie,Kaoh Ta Kiev,Kaôh Ta Kiĕv,Koh Ta Kiev,កោះតាកៀវ",
    "lat": 10.49321,
    "lon": 103.5949,
    "fcode": "ISL",
    "cc2": "",
    "country": "KH",
    "elev": null,
    "dem": 30,
    "province": "Khaet Preah Sihanouk"
  },
  {
    "id": "1821942",
    "name": "Phnum Ta Tam",
    "ascii": "Phnum Ta Tam",
    "alt": "Phnum Ta Tam,Phnum Takeam,Phnum Takéam",
    "lat": 12.77844,
    "lon": 102.86198,
    "fcode": "MT",
    "cc2": "",
    "country": "KH",
    "elev": null,
    "dem": 456,
    "province": "Battambang"
  },
  {
    "id": "1821943",
    "name": "Kaôh Ta Ké",
    "ascii": "Kaoh Ta Ke",
    "alt": "Kaoh Ta Ke,Kas Takaye,Kaôh Ta Ké",
    "lat": 13.22246,
    "lon": 105.99754,
    "fcode": "ISL",
    "cc2": "",
    "country": "KH",
    "elev": null,
    "dem": 55,
    "province": "Stung Treng"
  },
  {
    "id": "1821944",
    "name": "Phnum Ta Kao",
    "ascii": "Phnum Ta Kao",
    "alt": "Phnom Takor,Phnum Ta Kao,Phnum Ta Kaor,Phnum Ta Kaôr,Phnŭm Ta Kaôr,ភ្នំតាកោរ",
    "lat": 12.47636,
    "lon": 103.08039,
    "fcode": "MT",
    "cc2": "",
    "country": "KH",
    "elev": null,
    "dem": 896,
    "province": "Battambang"
  },
  {
    "id": "1821945",
    "name": "Kaoh Ta Kak",
    "ascii": "Kaoh Ta Kak",
    "alt": "Dan Takak,Kaoh Ta Kak,Kaoh Takak,Kaôh Takak,កោះ តាកាក",
    "lat": 13.56752,
    "lon": 106.16967,
    "fcode": "ISL",
    "cc2": "",
    "country": "KH",
    "elev": null,
    "dem": 51,
    "province": "Stung Treng"
  },
  {
    "id": "1821948",
    "name": "Kaôh Tahêm",
    "ascii": "Kaoh Tahem",
    "alt": "Kaoh Tahem,Kas Tahem,Kaôh Tahêm,កោះតាហែម",
    "lat": 12.27478,
    "lon": 105.74616,
    "fcode": "ISL",
    "cc2": "",
    "country": "KH",
    "elev": null,
    "dem": 17,
    "province": "Kratie"
  },
  {
    "id": "1821949",
    "name": "Phnum Ta Hay",
    "ascii": "Phnum Ta Hay",
    "alt": "Phnum Ta Hay,Phnum Tahay,Phnŭm Tahay,Phou Tahay,ភ្នំ តាហាយ",
    "lat": 14.08273,
    "lon": 105.75928,
    "fcode": "HLL",
    "cc2": "",
    "country": "KH",
    "elev": null,
    "dem": 232,
    "province": "Preah Vihear"
  },
  {
    "id": "1821955",
    "name": "Phnŭm Ta Dòng",
    "ascii": "Phnum Ta Dong",
    "alt": "Phnom Tadong,Phnum Ta Dong,Phnŭm Ta Dòng,ភ្នំ តាដុង",
    "lat": 13.80894,
    "lon": 103.05769,
    "fcode": "HLL",
    "cc2": "",
    "country": "KH",
    "elev": null,
    "dem": 104,
    "province": "Bantey Meanchey"
  },
  {
    "id": "1821956",
    "name": "Phnum Ta Det",
    "ascii": "Phnum Ta Det",
    "alt": "Phnom Ta Deth,Phnum Ta Det,Phnŭm Ta Dét,ភ្នំតាដេត",
    "lat": 12.71194,
    "lon": 102.60751,
    "fcode": "MT",
    "cc2": "",
    "country": "KH",
    "elev": 1130,
    "dem": 1114,
    "province": "Pailin"
  },
  {
    "id": "1821957",
    "name": "Phnum Ta Dat",
    "ascii": "Phnum Ta Dat",
    "alt": "Phnom Tadal,Phnum Ta Dat,Phnŭm Ta Dat,ភ្នំតាដាត",
    "lat": 12.41499,
    "lon": 104.23585,
    "fcode": "HLL",
    "cc2": "",
    "country": "KH",
    "elev": null,
    "dem": 158,
    "province": "Pursat"
  },
  {
    "id": "1821963",
    "name": "Phnum Ta Cha",
    "ascii": "Phnum Ta Cha",
    "alt": "Phnom Ta Cha,Phnum Ta Cha,Phnum Ta Char,Phnŭm Ta Cha",
    "lat": 13.67984,
    "lon": 105.6473,
    "fcode": "HLL",
    "cc2": "",
    "country": "KH",
    "elev": null,
    "dem": 228,
    "province": "Stung Treng"
  },
  {
    "id": "1821966",
    "name": "Phnum Ta Chan",
    "ascii": "Phnum Ta Chan",
    "alt": "Phnum Ta Chan,Phnum Ta Chăn",
    "lat": 12.7958,
    "lon": 102.85961,
    "fcode": "HLL",
    "cc2": "",
    "country": "KH",
    "elev": null,
    "dem": 232,
    "province": "Battambang"
  },
  {
    "id": "1821970",
    "name": "Rocher Table",
    "ascii": "Rocher Table",
    "alt": "Ile de la Table,Rocher Table,Île de la Table",
    "lat": 10.98333,
    "lon": 103.05,
    "fcode": "ISL",
    "cc2": "",
    "country": "KH",
    "elev": null,
    "dem": -9999,
    "province": "Koh Kong"
  },
  {
    "id": "1821974",
    "name": "Phnum Ta Ban",
    "ascii": "Phnum Ta Ban",
    "alt": "",
    "lat": 10.5459,
    "lon": 103.68363,
    "fcode": "HLL",
    "cc2": "",
    "country": "KH",
    "elev": null,
    "dem": 189,
    "province": "Khaet Preah Sihanouk"
  },
  {
    "id": "1821979",
    "name": "Phnŭm Sya",
    "ascii": "Phnum Sya",
    "alt": "Phnum Sya,Phnŭm Sya,ភ្នំស្យា",
    "lat": 12.62393,
    "lon": 103.13675,
    "fcode": "HLL",
    "cc2": "",
    "country": "KH",
    "elev": null,
    "dem": 198,
    "province": "Battambang"
  },
  {
    "id": "1821981",
    "name": "Phnum Svet",
    "ascii": "Phnum Svet",
    "alt": "Phnum Svet,Phnŭm Svĕt,ភ្នំស្វិត",
    "lat": 12.48705,
    "lon": 102.92787,
    "fcode": "MT",
    "cc2": "",
    "country": "KH",
    "elev": 1022,
    "dem": 1010,
    "province": "Battambang"
  },
  {
    "id": "1821986",
    "name": "Phnum Svay Svak",
    "ascii": "Phnum Svay Svak",
    "alt": "Phnom Svay Svak,Phnum Svay Svak,Phnŭm Svay Svak,ភ្នំ ស្វាយស្វាក",
    "lat": 12.388,
    "lon": 106.11104,
    "fcode": "HLL",
    "cc2": "",
    "country": "KH",
    "elev": null,
    "dem": 115,
    "province": "Kratie"
  },
  {
    "id": "1821987",
    "name": "Phnum Svay Sar",
    "ascii": "Phnum Svay Sar",
    "alt": "Phnom Svai Sa,Phnom Svai Sâ,Phnum Svay Sa,Phnum Svay Sar,Phnum Svay Sâr,Phnŭm Svay Sâ",
    "lat": 10.61264,
    "lon": 104.35862,
    "fcode": "HLL",
    "cc2": "",
    "country": "KH",
    "elev": null,
    "dem": 208,
    "province": "Kampot"
  },
  {
    "id": "1822006",
    "name": "Phnum Svay",
    "ascii": "Phnum Svay",
    "alt": "Phnom Souaye,Phnum Svay,Phnôm Souaye,Phnŭm Svay,ភ្នំស្វាយ",
    "lat": 12.50763,
    "lon": 103.37574,
    "fcode": "HLL",
    "cc2": "",
    "country": "KH",
    "elev": null,
    "dem": 248,
    "province": "Pursat"
  },
  {
    "id": "1822013",
    "name": "Kaôh Svay",
    "ascii": "Kaoh Svay",
    "alt": "Kaoh Svay,Kas Svay,Kaôh Svay",
    "lat": 11.91667,
    "lon": 105.16667,
    "fcode": "ISL",
    "cc2": "",
    "country": "KH",
    "elev": null,
    "dem": 13,
    "province": "Kampong Cham"
  },
  {
    "id": "1822014",
    "name": "Kaôh Svay",
    "ascii": "Kaoh Svay",
    "alt": "Hon Queo,Hòn Quéo,Kaoh Svay,Kaôh Svay",
    "lat": 10.452,
    "lon": 104.33324,
    "fcode": "ISL",
    "cc2": "",
    "country": "KH",
    "elev": null,
    "dem": 23,
    "province": "Kep"
  },
  {
    "id": "1822016",
    "name": "Kaôh Sva Préam",
    "ascii": "Kaoh Sva Pream",
    "alt": "",
    "lat": 12.78494,
    "lon": 104.12258,
    "fcode": "ISL",
    "cc2": "",
    "country": "KH",
    "elev": null,
    "dem": 10,
    "province": "Pursat"
  },
  {
    "id": "1822017",
    "name": "Phnum Sva Pramdandah",
    "ascii": "Phnum Sva Pramdandah",
    "alt": "Phnum Sva Pram Dandab,Phnum Sva Pram Dandap,Phnum Sva Pramdandah,Phnum Sva Prăm Dândáb,Phnŭm Sva Prăm Dândâp,Sva Pram Dandap,Sva Pram Dandâp,ភ្នំស្វាប្រាំដណ្តប់",
    "lat": 12.64693,
    "lon": 102.95025,
    "fcode": "HLL",
    "cc2": "",
    "country": "KH",
    "elev": null,
    "dem": 97,
    "province": "Battambang"
  },
  {
    "id": "1822021",
    "name": "Kaoh Son",
    "ascii": "Kaoh Son",
    "alt": "Kaoh Son,Kaoh Sun,Kaôh Sŭn,កោះស៊ុន",
    "lat": 13.53637,
    "lon": 106.29538,
    "fcode": "ISL",
    "cc2": "",
    "country": "KH",
    "elev": null,
    "dem": 78,
    "province": "Stung Treng"
  },
  {
    "id": "1822022",
    "name": "Phnum Stuok",
    "ascii": "Phnum Stuok",
    "alt": "Phnum Stuok,Phnum Stuŏk,Phnŭm Stuŏk,ភ្នំស្ទួក",
    "lat": 11.75314,
    "lon": 103.57021,
    "fcode": "MT",
    "cc2": "",
    "country": "KH",
    "elev": null,
    "dem": 925,
    "province": "Koh Kong"
  },
  {
    "id": "1822023",
    "name": "Phnum Stoung Kngaok",
    "ascii": "Phnum Stoung Kngaok",
    "alt": "Phnom Steang Kangok,Phnom Stoang Kangok,Phnum Stoang Kangok,Phnum Stoung Kngaok,Phnum Stoŭng Kngaôk,Phnŭm Stoang Kangok",
    "lat": 12.34306,
    "lon": 103.32537,
    "fcode": "MT",
    "cc2": "",
    "country": "KH",
    "elev": null,
    "dem": 455,
    "province": "Pursat"
  },
  {
    "id": "1822031",
    "name": "Kaoh Stueng Totueng",
    "ascii": "Kaoh Stueng Totueng",
    "alt": "Kaoh Stoeng Totoeng,Kaoh Stueng Totueng,Kas Stung Tetung,Kaôh Stœ̆ng Tôtœ̆ng",
    "lat": 12.36726,
    "lon": 104.66448,
    "fcode": "ISL",
    "cc2": "",
    "country": "KH",
    "elev": null,
    "dem": 11,
    "province": "Kampong Chhnang"
  },
  {
    "id": "1822040",
    "name": "Phnum Stueng Dambang",
    "ascii": "Phnum Stueng Dambang",
    "alt": "Phnom Stung Dambang,Phnum Stoeng Dambang,Phnum Stueng Dambang,Phnum Stœ̆ng Dâmbâng,Phnŭm Stœ̆ng Dâmbâng,ភ្នំ ស្ទឹងដំបង",
    "lat": 12.33875,
    "lon": 106.15416,
    "fcode": "HLL",
    "cc2": "",
    "country": "KH",
    "elev": null,
    "dem": 143,
    "province": "Kratie"
  },
  {
    "id": "1822043",
    "name": "Phnum Sruoy",
    "ascii": "Phnum Sruoy",
    "alt": "Phnom S'Rouille,Phnom S’Rouille,Phnum Sruoy,Phnum Sruŏy,Phnŭm Sruŏy,ភ្នំ ស្រួយ",
    "lat": 13.11102,
    "lon": 106.15484,
    "fcode": "HLL",
    "cc2": "",
    "country": "KH",
    "elev": null,
    "dem": 82,
    "province": "Kratie"
  },
  {
    "id": "1822044",
    "name": "Phnŭm Srâl",
    "ascii": "Phnum Sral",
    "alt": "Phnum Sral,Phnum Sruol,Phnŭm Sruŏl,Phnŭm Srâl,ភ្នំស្រល",
    "lat": 12.33632,
    "lon": 102.83308,
    "fcode": "MT",
    "cc2": "",
    "country": "KH",
    "elev": null,
    "dem": 990,
    "province": "Pursat"
  },
  {
    "id": "1822045",
    "name": "Phnum Sruŏch",
    "ascii": "Phnum Sruoch",
    "alt": "Phnom Sradieck,Phnom Sradiek,Phnum Sruoch,Phnum Sruŏch",
    "lat": 14.38716,
    "lon": 103.67785,
    "fcode": "MT",
    "cc2": "",
    "country": "KH",
    "elev": null,
    "dem": 393,
    "province": "Oddar Meanchey"
  },
  {
    "id": "1822046",
    "name": "Phnum Sruŏch",
    "ascii": "Phnum Sruoch",
    "alt": "Phnom Sruoch,Phnum Sruoch,Phnum Sruŏch",
    "lat": 12.90608,
    "lon": 105.65993,
    "fcode": "MT",
    "cc2": "",
    "country": "KH",
    "elev": null,
    "dem": 550,
    "province": "Kampong Thom"
  },
  {
    "id": "1822047",
    "name": "Phnum Sruoch",
    "ascii": "Phnum Sruoch",
    "alt": "Phnom Srouitt,Phnum Sruoch,Phnŭm Sruŏch,ភ្នំ ស្រួច",
    "lat": 11.85612,
    "lon": 102.9925,
    "fcode": "HLL",
    "cc2": "",
    "country": "KH",
    "elev": 579,
    "dem": 552,
    "province": "Koh Kong"
  },
  {
    "id": "1822048",
    "name": "Phnum Sruŏch",
    "ascii": "Phnum Sruoch",
    "alt": "Phnom Sruock,Phnum Sruoch,Phnum Sruŏch,Phou Struok",
    "lat": 14.38751,
    "lon": 104.62069,
    "fcode": "HLL",
    "cc2": "",
    "country": "KH",
    "elev": 281,
    "dem": 291,
    "province": "Preah Vihear"
  },
  {
    "id": "1822049",
    "name": "Phnum Sruoch",
    "ascii": "Phnum Sruoch",
    "alt": "Phnom Srouch,Phnum Sruoch,Phnum Sruŏch,Phnŭm Sruŏch,ភ្នំ ស្រួច",
    "lat": 13.00641,
    "lon": 106.15321,
    "fcode": "HLL",
    "cc2": "",
    "country": "KH",
    "elev": null,
    "dem": 116,
    "province": "Kratie"
  },
  {
    "id": "1822050",
    "name": "Phnum Sruoch",
    "ascii": "Phnum Sruoch",
    "alt": "Phnom Sruach,Phnum Sruoch,Phnum Sruŏch",
    "lat": 11.88636,
    "lon": 103.14158,
    "fcode": "HLL",
    "cc2": "",
    "country": "KH",
    "elev": null,
    "dem": 455,
    "province": "Koh Kong"
  },
  {
    "id": "1822051",
    "name": "Phnum Sruŏch",
    "ascii": "Phnum Sruoch",
    "alt": "",
    "lat": 11.26406,
    "lon": 104.60411,
    "fcode": "HLL",
    "cc2": "",
    "country": "KH",
    "elev": null,
    "dem": 356,
    "province": "Kampong Speu"
  },
  {
    "id": "1822054",
    "name": "Phnum Srŏh Khchau",
    "ascii": "Phnum Sroh Khchau",
    "alt": "Phnom Srah Khchau,Phnom Srâh Khchau,Phnum Sroh Khchau,Phnum Srŏh Khchau",
    "lat": 12.64376,
    "lon": 105.02492,
    "fcode": "HLL",
    "cc2": "",
    "country": "KH",
    "elev": null,
    "dem": 110,
    "province": "Kampong Thom"
  },
  {
    "id": "1822060",
    "name": "Phnum Srê Snal",
    "ascii": "Phnum Sre Snal",
    "alt": "Phnom Pre Snal,Phnom Prê Snâl,Phnum Sre Snal,Phnum Srê Snal",
    "lat": 13.39799,
    "lon": 105.27304,
    "fcode": "HLL",
    "cc2": "",
    "country": "KH",
    "elev": null,
    "dem": 82,
    "province": "Preah Vihear"
  },
  {
    "id": "1822065",
    "name": "Phnum Srae Reang",
    "ascii": "Phnum Srae Reang",
    "alt": "Phnom Sre Rang,Phnum Srae Reang,Phnum Sre Reang,Phnum Srê Reăng",
    "lat": 12.06786,
    "lon": 103.92534,
    "fcode": "HLL",
    "cc2": "",
    "country": "KH",
    "elev": null,
    "dem": 231,
    "province": "Pursat"
  },
  {
    "id": "1822076",
    "name": "Phnum Srae Mousna",
    "ascii": "Phnum Srae Mousna",
    "alt": "Phnum Srae Mousna,Phnum Sre Mosna,Phnum Sremo Sna,Phnum Srê Mosna,Phnŭm Srêmo Sna,Sreme Sna,ភ្នំស្រែម៉ូស្នា",
    "lat": 10.69997,
    "lon": 103.79304,
    "fcode": "MT",
    "cc2": "",
    "country": "KH",
    "elev": null,
    "dem": 302,
    "province": "Khaet Preah Sihanouk"
  },
  {
    "id": "1822081",
    "name": "Phnum Srae Khnong",
    "ascii": "Phnum Srae Khnong",
    "alt": "Phnum Srae Khnong,Phnum Sre Knong,Phnum Srê Knŏng,Phnŭm Srê Knŏng,ភ្នំ ស្រែក្នុង",
    "lat": 10.94712,
    "lon": 104.49474,
    "fcode": "MT",
    "cc2": "",
    "country": "KH",
    "elev": null,
    "dem": 328,
    "province": "Kampot"
  },
  {
    "id": "1822090",
    "name": "Phnum Srae Chrey Bak",
    "ascii": "Phnum Srae Chrey Bak",
    "alt": "Phnum Srae Chrey Bak,Phnum Sre Chrey Bak,Phnum Srê Chrey Băk",
    "lat": 10.99806,
    "lon": 104.19416,
    "fcode": "HLL",
    "cc2": "",
    "country": "KH",
    "elev": null,
    "dem": 274,
    "province": "Kampot"
  },
  {
    "id": "1822095",
    "name": "Srê Chăs",
    "ascii": "Sre Chas",
    "alt": "Sre Chas,Srê Chăs,ស្រែចាស់",
    "lat": 13.18896,
    "lon": 106.19809,
    "fcode": "HLL",
    "cc2": "",
    "country": "KH",
    "elev": null,
    "dem": 80,
    "province": "Kratie"
  },
  {
    "id": "1822100",
    "name": "Phnum Srae Ampil",
    "ascii": "Phnum Srae Ampil",
    "alt": "Phnum Srae Ampil,Phnum Sre Ampil,Phnum Srê Âmpĭl,Phnŭm Srê Âmpil,ភ្នំស្រែអំពិល",
    "lat": 12.15364,
    "lon": 104.23236,
    "fcode": "PK",
    "cc2": "",
    "country": "KH",
    "elev": null,
    "dem": 291,
    "province": "Kampong Chhnang"
  },
  {
    "id": "1822104",
    "name": "Phnum Sranak",
    "ascii": "Phnum Sranak",
    "alt": "Phnom Srnoch,Phnum Sranak,Phnum Sranok,Phnŭm Srânŏk,ភ្នំស្រណុក",
    "lat": 12.80309,
    "lon": 102.80884,
    "fcode": "HLL",
    "cc2": "",
    "country": "KH",
    "elev": null,
    "dem": 184,
    "province": "Battambang"
  },
  {
    "id": "1822105",
    "name": "Phnum Srang Thum",
    "ascii": "Phnum Srang Thum",
    "alt": "Phnom Srang Thom,Phnum Srang Thom,Phnum Srang Thum,Phnŭm Sráng Thom,Phnŭm Sráng Thum,Phnŭm Srâng Thom,ភ្នំស្រង់ធំ",
    "lat": 12.89937,
    "lon": 102.6811,
    "fcode": "MTS",
    "cc2": "",
    "country": "KH",
    "elev": 497,
    "dem": 478,
    "province": "Pailin"
  },
  {
    "id": "1822106",
    "name": "Phnum Srang Thum",
    "ascii": "Phnum Srang Thum",
    "alt": "Phnom Srang Thom,Phnom Srung Thom,Phnum Srang Thom,Phnum Srang Thum,Phnŭm Srâng Thom,ភ្នំស្រង់ធំ",
    "lat": 12.92064,
    "lon": 102.82026,
    "fcode": "MT",
    "cc2": "",
    "country": "KH",
    "elev": null,
    "dem": 386,
    "province": "Battambang"
  },
  {
    "id": "1822108",
    "name": "Phnum Srang",
    "ascii": "Phnum Srang",
    "alt": "Phnum Srang,Phnum Sráng,Phnŭm Srâng,ភ្នំស្រង់",
    "lat": 12.40132,
    "lon": 104.06027,
    "fcode": "MT",
    "cc2": "",
    "country": "KH",
    "elev": null,
    "dem": 332,
    "province": "Pursat"
  },
  {
    "id": "1822109",
    "name": "Phnum Sráng",
    "ascii": "Phnum Srang",
    "alt": "Phnom Sreng,Phnum Srang,Phnum Sráng",
    "lat": 11.26982,
    "lon": 104.59229,
    "fcode": "MT",
    "cc2": "",
    "country": "KH",
    "elev": null,
    "dem": 677,
    "province": "Kampong Speu"
  },
  {
    "id": "1822113",
    "name": "Kaoh Sramaoch",
    "ascii": "Kaoh Sramaoch",
    "alt": "Channel Island,Ile du Chenal,Ile du Cheval,Kaoh Sramaoch,Kaôh Srâmaôch,Koh Sramoch,Île du Chenal,Île du Cheval",
    "lat": 10.48483,
    "lon": 103.62144,
    "fcode": "ISL",
    "cc2": "",
    "country": "KH",
    "elev": null,
    "dem": 35,
    "province": "Khaet Preah Sihanouk"
  },
  {
    "id": "1822115",
    "name": "Kaôh Srâlay",
    "ascii": "Kaoh Sralay",
    "alt": "Dan Say,Kaoh Sralay,Kas Saray,Kaôh Srâlay,Kâs Saray",
    "lat": 13.41667,
    "lon": 105.9,
    "fcode": "ISL",
    "cc2": "",
    "country": "KH",
    "elev": null,
    "dem": 86,
    "province": "Stung Treng"
  },
  {
    "id": "1822116",
    "name": "Phnum Sralau",
    "ascii": "Phnum Sralau",
    "alt": "Phnom Sralao,Phnum Sralau,Phnŭm Srâlau,ភ្នំ ស្រឡៅ",
    "lat": 14.07702,
    "lon": 105.78009,
    "fcode": "HLL",
    "cc2": "",
    "country": "KH",
    "elev": null,
    "dem": 165,
    "province": "Preah Vihear"
  },
  {
    "id": "1822117",
    "name": "Phnum Srâlau",
    "ascii": "Phnum Sralau",
    "alt": "Phnom Sralao,Phnum Sralau,Phnum Srâlau",
    "lat": 13.43192,
    "lon": 104.58096,
    "fcode": "HLL",
    "cc2": "",
    "country": "KH",
    "elev": null,
    "dem": 223,
    "province": "Siem Reap"
  },
  {
    "id": "1822118",
    "name": "Phnŭm Srâlau",
    "ascii": "Phnum Sralau",
    "alt": "Phnom Salao,Phnum Sralau,Phnŭm Srâlau",
    "lat": 13.29767,
    "lon": 102.35791,
    "fcode": "HLL",
    "cc2": "",
    "country": "KH",
    "elev": 389,
    "dem": 353,
    "province": "Battambang"
  },
  {
    "id": "1822119",
    "name": "Phnum Sralau",
    "ascii": "Phnum Sralau",
    "alt": "Phnom Sralao,Phnum Sralau,Phnum Srâlau",
    "lat": 12.18945,
    "lon": 106.13095,
    "fcode": "HLL",
    "cc2": "",
    "country": "KH",
    "elev": null,
    "dem": 123,
    "province": "Kratie"
  },
  {
    "id": "1822121",
    "name": "Kaôh Srâlau",
    "ascii": "Kaoh Sralau",
    "alt": "Ile de Kok Sralou,Kaoh Sralau,Kaôh Srâlau",
    "lat": 11.46667,
    "lon": 103,
    "fcode": "ISL",
    "cc2": "",
    "country": "KH",
    "elev": null,
    "dem": -9999,
    "province": "Koh Kong"
  },
  {
    "id": "1822129",
    "name": "Phnum Spung",
    "ascii": "Phnum Spung",
    "alt": "Phnom Spong,Phnum Spung,Phnum Spŭng,Tuk Meas",
    "lat": 12.39004,
    "lon": 104.75128,
    "fcode": "MT",
    "cc2": "",
    "country": "KH",
    "elev": null,
    "dem": 282,
    "province": "Kampong Chhnang"
  },
  {
    "id": "1822131",
    "name": "Phnum Spong",
    "ascii": "Phnum Spong",
    "alt": "Phnum Spong,Phnŭm Spông,ភ្នំស្ព៉ង",
    "lat": 12.4134,
    "lon": 102.82895,
    "fcode": "MT",
    "cc2": "",
    "country": "KH",
    "elev": null,
    "dem": 568,
    "province": "Battambang"
  },
  {
    "id": "1822132",
    "name": "Phnum Spông",
    "ascii": "Phnum Spong",
    "alt": "Phnum Spong,Phnum Spông,Phu Spong",
    "lat": 13.79374,
    "lon": 105.92259,
    "fcode": "HLL",
    "cc2": "",
    "country": "KH",
    "elev": null,
    "dem": 167,
    "province": "Stung Treng"
  },
  {
    "id": "1822147",
    "name": "Phnum Sophi",
    "ascii": "Phnum Sophi",
    "alt": "Phnum Sophi",
    "lat": 11.27036,
    "lon": 104.54451,
    "fcode": "HLL",
    "cc2": "",
    "country": "KH",
    "elev": null,
    "dem": 226,
    "province": "Kampong Speu"
  },
  {
    "id": "1822150",
    "name": "Phnum Soksai",
    "ascii": "Phnum Soksai",
    "alt": "Phnum Sok Sai,Phnum Soksai,Phnum Sŏk Sai",
    "lat": 10.69052,
    "lon": 104.72088,
    "fcode": "HLL",
    "cc2": "",
    "country": "KH",
    "elev": null,
    "dem": 193,
    "province": "Takeo"
  },
  {
    "id": "1822155",
    "name": "Phnum Sou an",
    "ascii": "Phnum Sou an",
    "alt": "Phnom Souan,Phnum So An,Phnum Sou an,Phnum Souan,Phnŭm Souan,ភ្នំ សូអាន",
    "lat": 14.08569,
    "lon": 105.7288,
    "fcode": "HLL",
    "cc2": "",
    "country": "KH",
    "elev": null,
    "dem": 242,
    "province": "Preah Vihear"
  },
  {
    "id": "1822164",
    "name": "Kaoh Snaeng",
    "ascii": "Kaoh Snaeng",
    "alt": "Dan Sneng,Dân Snèng,Kaoh Snaeng,Kaoh Sneng,Kaôh Snêng,កោះស្នែង",
    "lat": 13.66533,
    "lon": 106.02937,
    "fcode": "ISL",
    "cc2": "",
    "country": "KH",
    "elev": null,
    "dem": 62,
    "province": "Stung Treng"
  },
  {
    "id": "1822175",
    "name": "Kaôh Snam Sai",
    "ascii": "Kaoh Snam Sai",
    "alt": "Dan Snam Sai,Dân Snam Sai,Kaoh Snam Sai,Kaôh Snam Sai",
    "lat": 13.58793,
    "lon": 105.99247,
    "fcode": "ISL",
    "cc2": "",
    "country": "KH",
    "elev": null,
    "dem": 70,
    "province": "Stung Treng"
  },
  {
    "id": "1822178",
    "name": "Phnum Snach Chruk",
    "ascii": "Phnum Snach Chruk",
    "alt": "Phnom Snap Chruk,Phnom Snăp Chrûk,Phnum Snach Chruk",
    "lat": 11.22985,
    "lon": 104.47127,
    "fcode": "HLL",
    "cc2": "",
    "country": "KH",
    "elev": null,
    "dem": 114,
    "province": "Kampong Speu"
  },
  {
    "id": "1822182",
    "name": "Phnum Smat Daeng",
    "ascii": "Phnum Smat Daeng",
    "alt": "Phnum Smat Daeng,Phnum Smat Deng,Phnŭm Smat Dêng,ភ្នំ ស្មាដដេង",
    "lat": 12.18168,
    "lon": 102.85742,
    "fcode": "MT",
    "cc2": "",
    "country": "KH",
    "elev": 1210,
    "dem": 1287,
    "province": "Pursat"
  },
  {
    "id": "1822189",
    "name": "Kaoh Smach",
    "ascii": "Kaoh Smach",
    "alt": "Kaoh Smach,Kas Samit,Kas Smach,Kaw Samit,Kaôh Smăch,Koh Samit,Koh Smach,កោះស្មាច់",
    "lat": 10.89515,
    "lon": 103.07806,
    "fcode": "ISL",
    "cc2": "",
    "country": "KH",
    "elev": 80,
    "dem": 26,
    "province": "Koh Kong"
  },
  {
    "id": "1822191",
    "name": "Kaôh Slêng",
    "ascii": "Kaoh Sleng",
    "alt": "Kaoh Sleng,Kas Sdey,Kaôh Slêng",
    "lat": 12.10702,
    "lon": 104.7948,
    "fcode": "ISL",
    "cc2": "",
    "country": "KH",
    "elev": null,
    "dem": 10,
    "province": "Kampong Chhnang"
  },
  {
    "id": "1822193",
    "name": "Phnum Slaek",
    "ascii": "Phnum Slaek",
    "alt": "Phnum Slaek,Phnum Slek,Phnum Slêk,Phnŭm Slêk,ភ្នំស្លែក",
    "lat": 13.70632,
    "lon": 103.92326,
    "fcode": "HLL",
    "cc2": "",
    "country": "KH",
    "elev": null,
    "dem": 294,
    "province": "Siem Reap"
  },
  {
    "id": "1822208",
    "name": "Phnum Sinh",
    "ascii": "Phnum Sinh",
    "alt": "Phnum Sinh,Phnŭm Sinh,ភ្នំស៊ីញ",
    "lat": 12.38224,
    "lon": 103.32367,
    "fcode": "HLL",
    "cc2": "",
    "country": "KH",
    "elev": null,
    "dem": 310,
    "province": "Pursat"
  },
  {
    "id": "1822223",
    "name": "Kaôh Sês",
    "ascii": "Kaoh Ses",
    "alt": "Co Set,Cô Set,Hon Nuoc,Ile de l'Eau,Kaoh Ses,Kas Ses,Kaôh Sês,Koh Ses,Kăs Sès,Tian Moy,Water Island,Île de l’Eau",
    "lat": 10.42275,
    "lon": 103.79987,
    "fcode": "ISL",
    "cc2": "",
    "country": "KH",
    "elev": null,
    "dem": 41,
    "province": "Khaet Preah Sihanouk"
  },
  {
    "id": "1822229",
    "name": "Phnum Seng Kaeb",
    "ascii": "Phnum Seng Kaeb",
    "alt": "Phnum Ceng Kep,Phnum Seng Kaeb,Phnum Seng Keb,Phnum Séng Kêb,Phnŭm Ceng Kep,Phnŭm Ceng Kêp,Yok Ceng Kep,Yôk Ceng Kep,ភ្នំ សេងកែប",
    "lat": 12.63207,
    "lon": 107.43432,
    "fcode": "HLL",
    "cc2": "",
    "country": "KH",
    "elev": null,
    "dem": 414,
    "province": "Mondulkiri"
  },
  {
    "id": "1822232",
    "name": "Phnum Sékahom",
    "ascii": "Phnum Sekahom",
    "alt": "Phnum Sekahom,Phnum Sékahom,Sekahom",
    "lat": 13.74052,
    "lon": 105.35954,
    "fcode": "HLL",
    "cc2": "",
    "country": "KH",
    "elev": null,
    "dem": 208,
    "province": "Preah Vihear"
  },
  {
    "id": "1822233",
    "name": "Kaôh Séh Slap",
    "ascii": "Kaoh Seh Slap",
    "alt": "Kaoh Seh Slab,Kaoh Seh Slap,Kaôh Séh Slap,Kaôh Séh Slăb,កោះសេះស្លាប់",
    "lat": 12.50316,
    "lon": 104.49345,
    "fcode": "ISL",
    "cc2": "",
    "country": "KH",
    "elev": null,
    "dem": 13,
    "province": "Kampong Chhnang"
  },
  {
    "id": "1822235",
    "name": "Kaoh Seh",
    "ascii": "Kaoh Seh",
    "alt": "Hon Keo Ngua,Hon Keo Ngual,Hon Kiem Giang,Hòn Keo Ngua,Hòn Kéo Ngual,Hón Kiêm Giang,Ile a L'eau,Ile a L’eau,Kaoh Seh,Kaoh Ses,Kaôh Séh,Koh Sef,Koh Seh,Koh Ses,Kos Ses,Kôs Sès,កោះសេះ",
    "lat": 10.35828,
    "lon": 104.32008,
    "fcode": "ISL",
    "cc2": "",
    "country": "KH",
    "elev": null,
    "dem": 14,
    "province": "Kep"
  },
  {
    "id": "1822239",
    "name": "Phnŭm Sdŏk Kăk",
    "ascii": "Phnum Sdok Kak",
    "alt": "Phnom Sdok Kak,Phnum Sdok Kak,Phnŭm Sdŏk Kăk,Sdok Kah",
    "lat": 13.76204,
    "lon": 102.9172,
    "fcode": "HLL",
    "cc2": "",
    "country": "KH",
    "elev": 52,
    "dem": 160,
    "province": "Bantey Meanchey"
  },
  {
    "id": "1822245",
    "name": "Kaôh Sbov",
    "ascii": "Kaoh Sbov",
    "alt": "Kaoh Sbov,Kas Sbeu,Kaôh Sbov",
    "lat": 12.98619,
    "lon": 106.04431,
    "fcode": "ISL",
    "cc2": "",
    "country": "KH",
    "elev": null,
    "dem": 31,
    "province": "Kratie"
  },
  {
    "id": "1822246",
    "name": "Phnum Sbai Thoeang",
    "ascii": "Phnum Sbai Thoeang",
    "alt": "Phnum Sbai Thieugn,Phnum Sbai Thoeang,Phnum Sbai Thœăng,Phnŭm Sbai Thieugn,ភ្នំ ស្បែថឿង",
    "lat": 12.32826,
    "lon": 103.04206,
    "fcode": "HLL",
    "cc2": "",
    "country": "KH",
    "elev": null,
    "dem": 512,
    "province": "Pursat"
  },
  {
    "id": "1822251",
    "name": "Phnum Saunam",
    "ascii": "Phnum Saunam",
    "alt": "Phnom Soa Nom,Phnum Sau Nam,Phnum Sau Nâm,Phnum Saunam,Phnum Soa Nom,Phnŭm Soa Nom",
    "lat": 12.70867,
    "lon": 103.14613,
    "fcode": "MT",
    "cc2": "",
    "country": "KH",
    "elev": null,
    "dem": 201,
    "province": "Battambang"
  },
  {
    "id": "1822252",
    "name": "Phnum Satum",
    "ascii": "Phnum Satum",
    "alt": "Phnom Satom,Phnum Satum,Phnum Satŭm",
    "lat": 13.35023,
    "lon": 106.14811,
    "fcode": "HLL",
    "cc2": "",
    "country": "KH",
    "elev": null,
    "dem": 148,
    "province": "Kratie"
  },
  {
    "id": "1822256",
    "name": "Phnum Saray Khyâl",
    "ascii": "Phnum Saray Khyal",
    "alt": "",
    "lat": 10.92924,
    "lon": 104.54069,
    "fcode": "MT",
    "cc2": "",
    "country": "KH",
    "elev": null,
    "dem": 328,
    "province": "Kampot"
  },
  {
    "id": "1822257",
    "name": "Phnum Sar Ay",
    "ascii": "Phnum Sar Ay",
    "alt": "Phnom Sa Ay,Phnum Sa Ay,Phnum Sar Ay,Phnum Sâr Ay,Phnŭm Sa Ay",
    "lat": 12.26755,
    "lon": 103.96477,
    "fcode": "MT",
    "cc2": "",
    "country": "KH",
    "elev": null,
    "dem": 594,
    "province": "Pursat"
  },
  {
    "id": "1822263",
    "name": "Phnŭm San Yoŭk",
    "ascii": "Phnum San Youk",
    "alt": "Phnum San Youk,Phnŭm San Yoŭk,ភ្នំសានយោគ",
    "lat": 12.69887,
    "lon": 102.65699,
    "fcode": "MT",
    "cc2": "",
    "country": "KH",
    "elev": 659,
    "dem": 649,
    "province": "Pailin"
  },
  {
    "id": "1822267",
    "name": "Phnum Sântŭk",
    "ascii": "Phnum Santuk",
    "alt": "Phnum Santuk,Phnum Sântŭk,Santuk Phnom",
    "lat": 12.64459,
    "lon": 105.00319,
    "fcode": "HLL",
    "cc2": "",
    "country": "KH",
    "elev": 207,
    "dem": 202,
    "province": "Kampong Thom"
  },
  {
    "id": "1822272",
    "name": "Phnum Sânlŏng",
    "ascii": "Phnum Sanlong",
    "alt": "",
    "lat": 10.78333,
    "lon": 104.76667,
    "fcode": "HLL",
    "cc2": "",
    "country": "KH",
    "elev": null,
    "dem": 6,
    "province": "Takeo"
  },
  {
    "id": "1822277",
    "name": "Phnŭm Săng Trai",
    "ascii": "Phnum Sang Trai",
    "alt": "Phnom Sang Krey,Phnum Sang Trai,Phnum Sáng Trai,Phnŭm Săng Trai",
    "lat": 12.32829,
    "lon": 105.96303,
    "fcode": "HLL",
    "cc2": "",
    "country": "KH",
    "elev": null,
    "dem": 70,
    "province": "Kratie"
  },
  {
    "id": "1822278",
    "name": "Phnum Sángkŏs",
    "ascii": "Phnum Sangkos",
    "alt": "Phnom Sang Kas,Phnum Sangkoh,Phnum Sangkos,Phnum Sángkŏs,Phnŭm Sângkŏh",
    "lat": 12.02107,
    "lon": 103.06397,
    "fcode": "RDGE",
    "cc2": "",
    "country": "KH",
    "elev": null,
    "dem": 711,
    "province": "Pursat"
  },
  {
    "id": "1822280",
    "name": "Phnŭm Sângkê Ta So",
    "ascii": "Phnum Sangke Ta So",
    "alt": "Phnom Sang Ke Taso,Phnom Sang Ké Taso,Phnum Sangke Ta So,Phnum Sangker Ta So,Phnum Sângkêr Ta So,Phnŭm Sângkê Ta So,ភ្នំសង្កែរតាសូ",
    "lat": 13.6843,
    "lon": 104.26763,
    "fcode": "HLL",
    "cc2": "",
    "country": "KH",
    "elev": null,
    "dem": 130,
    "province": "Siem Reap"
  },
  {
    "id": "1822288",
    "name": "Phnum Sangkae",
    "ascii": "Phnum Sangkae",
    "alt": "Phnom Sangke,Phnom Sangkê,Phnum Sangkae,Phnum Sangke,Phnum Sângkê",
    "lat": 12.3249,
    "lon": 105.62544,
    "fcode": "HLL",
    "cc2": "",
    "country": "KH",
    "elev": null,
    "dem": 84,
    "province": "Kampong Cham"
  },
  {
    "id": "1822295",
    "name": "Phnum S’ang",
    "ascii": "Phnum S'ang",
    "alt": "Phnom Saang,Phnum S'ang,Phnum S’ang,Pnom Saang",
    "lat": 11.35731,
    "lon": 104.96196,
    "fcode": "HLL",
    "cc2": "",
    "country": "KH",
    "elev": null,
    "dem": 22,
    "province": "Kandal"
  },
  {
    "id": "1822296",
    "name": "Phnum San Doun Mi",
    "ascii": "Phnum San Doun Mi",
    "alt": "Phnom Sandomy,Phnum San Doun Mi,Phnum Sandomi,Phnum Sandomy,Phnŭm Sandomy,ភ្នំសានដូមី",
    "lat": 11.86935,
    "lon": 103.68354,
    "fcode": "MT",
    "cc2": "",
    "country": "KH",
    "elev": null,
    "dem": 1191,
    "province": "Koh Kong"
  },
  {
    "id": "1822298",
    "name": "Phnum Sandaek",
    "ascii": "Phnum Sandaek",
    "alt": "Phnom Sandek,Phnom Sandok,Phnum Sandaek,Phnum Sandek,Phnŭm Sândêk",
    "lat": 12.82597,
    "lon": 102.80756,
    "fcode": "HLLS",
    "cc2": "",
    "country": "KH",
    "elev": null,
    "dem": 273,
    "province": "Battambang"
  },
  {
    "id": "1822305",
    "name": "Phnum Sandak",
    "ascii": "Phnum Sandak",
    "alt": "Paar,Phnom Sandak,Phnum Sandak,Phnum Sândâk",
    "lat": 14.01974,
    "lon": 104.45575,
    "fcode": "MT",
    "cc2": "",
    "country": "KH",
    "elev": null,
    "dem": 394,
    "province": "Preah Vihear"
  },
  {
    "id": "1822307",
    "name": "Kaôh Sănchaura",
    "ascii": "Kaoh Sanchaura",
    "alt": "",
    "lat": 11.7025,
    "lon": 102.96611,
    "fcode": "ISL",
    "cc2": "",
    "country": "KH",
    "elev": null,
    "dem": 10,
    "province": "Koh Kong"
  },