[
  {
    "id": "1605212",
    "name": "Phnum Vêng",
    "ascii": "Phnum Veng",
    "alt": "Phnom Veng,Phnum Veng,Phnum Vêng",
    "lat": 14.41667,
    "lon": 103.53333,
    "fcode": "HLL",
    "cc2": "TH",
    "country": "TH",
    "elev": null,
    "dem": 276,
    "province": "Oddar Meanchey"
  },
  {
    "id": "1605704",
    "name": "Khao Ta Thong",
    "ascii": "Khao Ta Thong",
    "alt": "Khao Ta Thong",
    "lat": 14.3888,
    "lon": 103.69939,
    "fcode": "HLL",
    "cc2": "KH,TH",
    "country": "KH,TH",
    "elev": null,
    "dem": 383,
    "province": "Oddar Meanchey"
  },
  {
    "id": "1608934",
    "name": "Khao Phanom Kai",
    "ascii": "Khao Phanom Kai",
    "alt": "Khao Phanom Kai,Khao Pnom Mac Kai,Phanom Mae Kai,Phnom Serouy,kheaphnm ki,เขาพนมไก่",
    "lat": 14.30231,
    "lon": 103.10133,
    "fcode": "MT",
    "cc2": "KH,TH",
    "country": "KH,TH",
    "elev": 537,
    "dem": 520,
    "province": "Buri Ram Province"
  },
  {
    "id": "1609346",
    "name": "Khao Kuap",
    "ascii": "Khao Kuap",
    "alt": "Khao Kuap,Khao Kuop,Phnom Thom,Phnum Thom,Phnum Thum,Phnŭm Thom,ភ្នំធំ",
    "lat": 12.39928,
    "lon": 102.78559,
    "fcode": "MT",
    "cc2": "TH",
    "country": "TH",
    "elev": null,
    "dem": 1216,
    "province": "Pursat"
  },
  {
    "id": "1611132",
    "name": "Chong Chom",
    "ascii": "Chong Chom",
    "alt": "Chong Chom,Passe de Cham,chxng cxm,ช่องจอม",
    "lat": 14.43644,
    "lon": 103.7007,
    "fcode": "PASS",
    "cc2": "KH,TH",
    "country": "KH,TH",
    "elev": null,
    "dem": 258,
    "province": "Surin Province"
  },
  {
    "id": "1652773",
    "name": "Phou Tapoung Noy",
    "ascii": "Phou Tapoung Noy",
    "alt": "Phnom Tapoung Hoi,Phnom Tapoung Kan,Phnum Tapoung Kan,Phnum Tapung Kan,Phou Taopoung-Noy,Phou Tapoung Noy",
    "lat": 14.32127,
    "lon": 105.99754,
    "fcode": "HLL",
    "cc2": "LA",
    "country": "LA",
    "elev": null,
    "dem": 324,
    "province": "Champasak Province"
  },
  {
    "id": "1654945",
    "name": "Phou Namkham",
    "ascii": "Phou Namkham",
    "alt": "Phnum Nam Khmaer,Phnum Nam Khmer,Phnum Nam Khmêr,Phnŭm Nam Khmer,Phou Nam Kham,Phou Nam Khame,Phou Name Khame,Phou Namkham,ភ្នំណាមខ្មែរ",
    "lat": 14.28294,
    "lon": 106.03726,
    "fcode": "HLL",
    "cc2": "LA",
    "country": "LA",
    "elev": null,
    "dem": 123,
    "province": "Stung Treng"
  },
  {
    "id": "1657919",
    "name": "Chong Bok",
    "ascii": "Chong Bok",
    "alt": "Chong Bok,Chong Pria Chambak,Chong Priap Chambak,Col de Preah Chambot,chxng bk,ช่องบก",
    "lat": 14.34351,
    "lon": 105.20274,
    "fcode": "PASS",
    "cc2": "KH,LA,TH",
    "country": "KH,LA,TH",
    "elev": null,
    "dem": 365,
    "province": "Preah Vihear"
  },
  {
    "id": "1821389",
    "name": "Khao Wong",
    "ascii": "Khao Wong",
    "alt": "Khao Wong,Phnum Vong,Phnum Vung,Phnŭm Vóng,Phnŭm Vŭng,ភ្នំ វង់",
    "lat": 11.7533,
    "lon": 102.90872,
    "fcode": "MT",
    "cc2": "TH",
    "country": "TH",
    "elev": 351,
    "dem": 332,
    "province": "Koh Kong"
  },
  {
    "id": "1821550",
    "name": "Phnum Tra Nel",
    "ascii": "Phnum Tra Nel",
    "alt": "Phnom Tra Nel,Phnum Dangrek,Phnum Dangrêk,Phnum Tra Nel,Phnum Tranel,Phnum Trâ Nĕl,Phnum Trânĕl",
    "lat": 14.4006,
    "lon": 103.61601,
    "fcode": "HLL",
    "cc2": "TH",
    "country": "TH",
    "elev": 344,
    "dem": 353,
    "province": "Oddar Meanchey"
  },
  {
    "id": "1821910",
    "name": "Chong Ta Leng",
    "ascii": "Chong Ta Leng",
    "alt": "Chong Ta Leng",
    "lat": 14.42363,
    "lon": 103.55987,
    "fcode": "PASS",
    "cc2": "TH",
    "country": "TH",
    "elev": null,
    "dem": 249,
    "province": "Oddar Meanchey"
  },
  {
    "id": "1821973",
    "name": "Khao Ta Bat",
    "ascii": "Khao Ta Bat",
    "alt": "Khao Ta Bat,Phnum Ta Bat,Phnŭm Ta Bat,khea ta bad,เขาตาบาด,ភ្នំតាបាទ",
    "lat": 12.63003,
    "lon": 102.59907,
    "fcode": "MT",
    "cc2": "TH",
    "country": "TH",
    "elev": 618,
    "dem": 705,
    "province": "Trat Province"
  },
  {
    "id": "1822384",
    "name": "Chong Sai Taku",
    "ascii": "Chong Sai Taku",
    "alt": "Chong Sai Taku,chxng say taku,ช่องสายตะกู",
    "lat": 14.33129,
    "lon": 103.19607,
    "fcode": "PASS",
    "cc2": "KH,TH",
    "country": "KH,TH",
    "elev": null,
    "dem": 255,
    "province": "Buri Ram Province"
  },
  {
    "id": "1822679",
    "name": "Chong Phra Phalai",
    "ascii": "Chong Phra Phalai",
    "alt": "Chong Phra Phalai,Chrak Phnum Preah Pralay,Chrâk Phnum Preăh Prâlay,Col de Preas Pralay",
    "lat": 14.36912,
    "lon": 104.48782,
    "fcode": "PASS",
    "cc2": "TH",
    "country": "TH",
    "elev": null,
    "dem": 513,
    "province": "Preah Vihear"
  },
  {
    "id": "1822812",
    "name": "Chong Plot Tang",
    "ascii": "Chong Plot Tang",
    "alt": "Chong Plot Tang,chxng pld tang,ช่องปลดต่าง",
    "lat": 14.4045,
    "lon": 103.63275,
    "fcode": "PASS",
    "cc2": "TH",
    "country": "TH",
    "elev": null,
    "dem": 314,
    "province": "Oddar Meanchey"
  },
  {
    "id": "1830257",
    "name": "Phou Ngoua",
    "ascii": "Phou Ngoua",
    "alt": "Phnum Ngao,Phnum Ngaô,Phnum Ngoa,Phnŭm Ngoa,Phou Ngoa,Phou Ngoua,ភ្នំង៉ោ",
    "lat": 14.26139,
    "lon": 106.0258,
    "fcode": "HLL",
    "cc2": "LA",
    "country": "LA",
    "elev": null,
    "dem": 171,
    "province": "Champasak Province"
  },
  {
    "id": "1830433",
    "name": "Phou Lai",
    "ascii": "Phou Lai",
    "alt": "Phnum Lai,Phnŭm Lai,Phou Lai,ភ្នំ ឡៃ",
    "lat": 14.36095,
    "lon": 106.1491,
    "fcode": "HLL",
    "cc2": "LA",
    "country": "LA",
    "elev": null,
    "dem": 167,
    "province": "Stung Treng"
  },
  {
    "id": "1830547",
    "name": "Chong Krang",
    "ascii": "Chong Krang",
    "alt": "Chong Krang,Chuk Trang,chxng krang,ช่องกร่าง",
    "lat": 14.35333,
    "lon": 103.32222,
    "fcode": "PASS",
    "cc2": "TH",
    "country": "TH",
    "elev": null,
    "dem": 235,
    "province": "Oddar Meanchey"
  },
  {
    "id": "1830929",
    "name": "Phnum Kei",
    "ascii": "Phnum Kei",
    "alt": "Phnom Keg,Phnum Kei",
    "lat": 14.35,
    "lon": 104.15,
    "fcode": "HLL",
    "cc2": "TH",
    "country": "TH",
    "elev": null,
    "dem": 213,
    "province": "Oddar Meanchey"
  },
  {
    "id": "1831660",
    "name": "Chong Chan Krahom",
    "ascii": "Chong Chan Krahom",
    "alt": "Chong Chan Kahom,Chong Chan Krahom,chxng can thr kra h xm,ช่องจันทร์กระฮอม",
    "lat": 14.33466,
    "lon": 103.18653,
    "fcode": "PASS",
    "cc2": "TH",
    "country": "TH",
    "elev": null,
    "dem": 239,
    "province": "Oddar Meanchey"
  },
  {
    "id": "1831812",
    "name": "Chong Ba Ra-nae",
    "ascii": "Chong Ba Ra-nae",
    "alt": "Chong Ba Ra-nae,Chong Baranae",
    "lat": 14.21167,
    "lon": 102.9625,
    "fcode": "PASS",
    "cc2": "TH",
    "country": "TH",
    "elev": null,
    "dem": 337,
    "province": "Bantey Meanchey"
  },
  {
    "id": "1949319",
    "name": "Chong Dong Rak",
    "ascii": "Chong Dong Rak",
    "alt": "Chong Dong Rak,chxng dng rak,ช่องดงรัก",
    "lat": 14.16167,
    "lon": 102.93722,
    "fcode": "PASS",
    "cc2": "TH",
    "country": "TH",
    "elev": null,
    "dem": 105,
    "province": "Bantey Meanchey"
  },
  {
    "id": "8769219",
    "name": "Chong Ban Phanom Rung",
    "ascii": "Chong Ban Phanom Rung",
    "alt": "Chong Ban Phanom Rung,chxng ban phnm rung,ช่องบ้านพนมรุ้ง",
    "lat": 13.53207,
    "lon": 102.34074,
    "fcode": "PASS",
    "cc2": "TH",
    "country": "TH",
    "elev": null,
    "dem": 105,
    "province": "Sa Kaeo Province"
  },
  {
    "id": "8769220",
    "name": "Chong Ban Thap Phrik",
    "ascii": "Chong Ban Thap Phrik",
    "alt": "Chong Ban Thap Phrik,chxng ban thab phrik,ช่องบ้านทับพริก",
    "lat": 13.5478,
    "lon": 102.3379,
    "fcode": "PASS",
    "cc2": "TH",
    "country": "TH",
    "elev": null,
    "dem": 100,
    "province": "Bantey Meanchey"
  },
  {
    "id": "8769221",
    "name": "Chong Ban Nong Prue Song",
    "ascii": "Chong Ban Nong Prue Song",
    "alt": "Chong Ban Nong Prue Song,chxng ban hnxng prux sxng,ช่องบ้านหนองปรือ สอง",
    "lat": 13.57298,
    "lon": 102.36211,
    "fcode": "PASS",
    "cc2": "TH",
    "country": "TH",
    "elev": null,
    "dem": 93,
    "province": "Sa Kaeo Province"
  },
  {
    "id": "8769222",
    "name": "Chong Ban Nong Prue Nueng",
    "ascii": "Chong Ban Nong Prue Nueng",
    "alt": "Chong Ban Nong Prue Nueng,chxng ban hnxng prux hnung,ช่องบ้านหนองปรือ หนึ่ง",
    "lat": 13.57676,
    "lon": 102.36971,
    "fcode": "PASS",
    "cc2": "TH",
    "country": "TH",
    "elev": null,
    "dem": 91,
    "province": "Sa Kaeo Province"
  },
  {
    "id": "8769223",
    "name": "Chong Noen Kao Sip Sam",
    "ascii": "Chong Noen Kao Sip Sam",
    "alt": "Chong Noen Kao Sip Sam,chxng nein kea sib sam,ช่องเนิน เก้าสิบสาม",
    "lat": 13.56743,
    "lon": 102.41235,
    "fcode": "PASS",
    "cc2": "TH",
    "country": "TH",
    "elev": null,
    "dem": 82,
    "province": "Bantey Meanchey"
  },
  {
    "id": "8769224",
    "name": "Chong Ban Phansuek",
    "ascii": "Chong Ban Phansuek",
    "alt": "Chong Ban Phansuek,chxng ban phan suk,ช่องบ้านผ่านศึก",
    "lat": 13.56939,
    "lon": 102.42404,
    "fcode": "PASS",
    "cc2": "TH",
    "country": "TH",
    "elev": null,
    "dem": 77,
    "province": "Bantey Meanchey"
  },
  {
    "id": "11202443",
    "name": "Sayphou Khiaonin",
    "ascii": "Sayphou Khiaonin",
    "alt": "Sayphou Khiaonin",
    "lat": 14.366,
    "lon": 106.01012,
    "fcode": "RDGE",
    "cc2": "LA",
    "country": "LA",
    "elev": null,
    "dem": 550,
    "province": "Champasak Province"
  }
]
